NAME,COUNTRY,LONGITUDE,LATITUDE,TAMAX,TAMAXDATE,TAMIN,TAMINDATE
SHARJAH INTER. AIRP, AE,55.517,25.333,26.03,1958,25.68,1957
ALGER DAR EL BEIDA, AG,3.25,36.7167,18.86,1989,16.51,1956
EL GOLEA, AG,2.8667,30.5667,23.49,1955,19.9,1974
IN AMENAS, AG,9.6331,28.05,22.82,1988,20.96,1974
TAMANRASSET, AG,5.4331,22.8,22.65,1969,20.5,1950
ORAN HOPITAL MILITAIRE, AG,0.65,35.7297,19.73,1895,16.71,1890
ANNABA CAP DE GARDE, AG,7.79,36.97,19.37,1913,17.33,1917
ALGIERS VILLE UNIVERSITE, AG,3.07,36.78,20.41,1899,17.64,1917
ALGIERS BOUZAREAH, AG,3.03,36.8,18.44,1899,15.83,1906
ALGIERS CAP CAXINE, AG,3.04,36.8,18.64,1878,18.09,1879
TIZI OUZOU, AG,4.05,36.72,18.79,1897,16.34,1890
FORT NATIONAL, AG,4.2,36.63,16.15,1924,13.19,1909
BEJAIA BOUGIE PORT, AG,5.1,36.75,19.6,1914,16.98,1917
CONSTANTINE, AG,6.62,36.3697,15.89,1912,14.54,1900
ORLEANSVILLE CHLEF, AG,1.34,36.17,19.66,1899,18.05,1912
SETIF, AG,5.4,36.18,14.97,1878,12.68,1923
ORAN CAP FALCON, AG,0.8,35.77,19.12,1897,17.77,1934
TEBESSA, AG,8.1197,35.42,17.04,1892,14.46,1923
NEMOURS GHAZAOUET, AG,-1.85,35.1,18.5,2012,16.18,1934
SIDI BEL ABBES, AG,0.63,35.2,17.32,1895,14.97,1890
BISKRA, AG,5.72,34.85,22.34,1926,20.43,1887
LAGHOUAT, AG,2.89,33.7997,19.21,1908,17.38,1898
GERYVILLE EL BAYADH, AG,1.0,33.68,16.05,1903,12.75,1925
SKIKDA CAP BOUGAROUNI, AG,6.47,37.08,17.94,1935,17.36,1938
BEJAIA CAP CARBON, AG,5.1,36.78,18.41,1938,17.94,1932
ANNABA, AG,7.809,36.822,17.87,1958,17.87,1958
GUELMA, AG,7.467,36.467,19.05,2014,18.25,2011
MOHAMED BOUDIAF INTERNATIONAL, AG,6.62,36.276,15.61,1967,15.61,1967
OUM EL BOUAGHI, AG,7.117,35.867,15.37,2005,15.37,2005
SOUK AHRAS, AG,7.967,36.283,15.97,2009,15.97,2009
MILIANA, AG,2.233,36.3,18.58,2006,17.38,2007
BORDJ BOU ARRERIDJ, AG,4.767,36.067,16.81,2012,16.81,2012
ARZEW, AG,-0.267,35.817,19.65,2009,18.82,2005
M SILA, AG,4.5,35.667,20.26,2014,19.34,2009
ES SENIA, AG,-0.621,35.624,18.07,1958,18.07,1958
KSAR CHELLALA, AG,2.317,35.167,17.14,2013,17.14,2013
BENI SAF, AG,-1.35,35.3,19.56,2011,19.24,2012
SIDI BEL ABBES, AG,-0.617,35.2,18.19,2006,16.37,2013
MAGHNIA, AG,-1.77,34.82,18.51,2009,17.41,2013
DJELFA TLETSI, AG,3.25,34.683,15.6,2014,14.75,2013
EL KHEITER, AG,0.067,34.15,17.44,2014,16.79,2005
EL BAYADH, AG,1.0,33.667,15.96,2014,15.31,2011
NAAMA, AG,-0.3,33.267,17.88,2010,16.28,2013
AIN SEFRA, AG,-0.6,32.767,19.3,2010,17.97,2009
BECHAR, AG,-2.27,31.646,22.17,1981,21.39,1958
OUARGLA, AG,5.413,31.917,22.37,1958,22.37,1958
OUED IRARA, AG,6.14,31.673,22.95,1981,22.95,1981
BENI ABBES, AG,-2.167,30.133,25.7,2010,24.25,2011
IN SALAH, AG,2.5,27.233,26.83,2008,26.83,2008
GANCA, AJ,46.4167,40.7167,15.5,1966,11.26,1911
ASTARA, AJ,48.9,38.5,16.03,1995,13.83,1993
GUMRI, AM,43.83,40.78,8.86,1966,4.53,1956
ARAGAC VISOKOGORNAYA, AM,44.2,40.5,-0.81,1966,-4.43,1992
ARMAVIR, AM,44.05,40.133,11.99,2017,11.99,2017
YEREVAN, AM,44.5,40.2,14.71,1966,9.37,1933
GAVAR, AM,45.1331,40.35,6.79,1966,3.2,1982
MALAELOA, AS AQ,-170.78333,-14.35,26.62,1972,26.51,1971
PAGO PAGO WEATHER SERVICE OFFICE AIRPORT, AS AQ,-170.71667,-14.33333,27.04,1963,26.12,1965
PAGO PAGO WEATHER SERVICE OFFICE AIRPORT, AS AQ,-170.71361,-14.33056,29.17,1998,26.2,1971
LA QUIACA OBSERVATO, AR,-65.6,-22.1,10.51,1994,8.88,1971
RIVADAVIA, AR,-62.9,-24.167,24.33,1969,22.54,1983
LAS LOMITAS, AR,-60.583,-24.7,24.17,1963,21.83,1962
SANTIAGO DEL ESTERO, AR,-64.3,-27.767,21.82,1997,19.67,1974
RESISTENCIA AERO, AR,-59.05,-27.45,22.24,1997,20.59,1987
LA RIOJA AERO., AR,-66.817,-29.383,21.85,1969,19.27,1979
CERES AERO, AR,-61.95,-29.883,20.26,1965,18.49,1973
RECONQUISTA AERO, AR,-59.7,-29.183,21.42,1997,19.27,1976
CORDOBA AERO, AR,-64.217,-31.317,18.55,1969,16.97,1979
PARANA AERO, AR,-60.483,-31.783,19.48,1997,17.23,1976
MENDOZA AERO, AR,-68.783,-32.833,18.33,2003,16.54,1976
LABOULAYE AERO, AR,-63.367,-34.133,17.95,1970,15.82,1984
SANTA ROSA AERO, AR,-64.266,-36.567,16.71,2003,14.69,1955
MAR DEL PLATA AERO, AR,-57.583,-37.933,15.34,1980,13.1,1964
NEUQUEN AERO, AR,-68.133,-38.95,15.58,1989,13.75,1959
ESQUEL AERO, AR,-71.15,-42.933,9.32,1998,7.36,1961
TRELEW AERO, AR,-65.266,-43.2,14.73,1989,12.72,2002
COMODORO RIVADAVIA, AR,-67.5,-45.783,14.27,1998,12.14,1984
RIO GALLEGOS AERO, AR,-69.283,-51.617,8.81,1985,6.88,1971
SALTA AERO, AR,-65.483,-24.85,18.35,1997,16.4,1976
JACHAL, AR,-68.75,-30.25,17.55,1977,14.82,1992
PEHUAJO AERO, AR,-61.9,-35.867,16.5,1989,14.85,1964
BUENOS AIRES OBSERV, AR,-58.483,-34.583,18.8,1997,15.36,1911
BAHIA BLANCA AERO, AR,-62.167,-38.733,16.42,2003,14.25,1976
WYNDHAM PORT, AS,128.1,-15.4644,31.09,1958,29.4,1963
WYNDHAM AERO, AS,128.1503,-15.51,30.69,2016,27.63,2011
TROUGHTON ISLAND, AS,126.1485,-13.7542,29.81,2016,27.19,1967
KURI BAY, AS,124.5222,-15.4875,28.82,1980,27.26,1994
MITCHELL PLATEAU, AS,125.8258,-14.7925,25.86,1983,25.38,1971
WYNDHAM, AS,128.1247,-15.4872,30.87,1992,27.57,2011
KALUMBURU, AS,126.6453,-14.2964,28.89,2016,25.94,2011
TRUSCOTT, AS,126.3867,-14.09,28.3,2010,26.84,2011
KALUMBURU MISSION, AS,126.6431,-14.2961,29.06,1942,26.16,1949
DOONGAN, AS,126.3114,-15.3797,26.92,2016,24.31,2011
OLD HALLS CREEK, AS,127.7817,-18.2519,27.12,1906,24.42,1949
HALLS CREEK AIRPORT, AS,127.6636,-18.2292,28.38,1992,25.23,2011
KIMBERLEY RES.STATION, AS,128.7092,-15.6547,29.13,1998,27.04,1976
WARMUN, AS,128.2175,-17.0156,29.31,2016,25.86,1976
KUNUNURRA, AS,128.7353,-15.7828,28.98,1981,27.37,1976
KUNUNURRA AERO, AS,128.71,-15.7814,29.41,2016,27.42,2008
ARGYLE AERODROME, AS,128.4517,-16.6381,29.98,2016,26.74,2011
HALLS CREEK COMPARISON, AS,127.6625,-18.2303,28.05,1998,28.05,1998
BROOME POST OFFICE, AS,122.25,-17.95,27.7,1906,25.76,1929
BROOME AIRPORT, AS,122.2353,-17.9475,28.41,2016,25.4,1976
CAPE LEVEQUE, AS,122.9278,-16.3961,27.74,1980,26.24,1976
FITZROY CROSSING COMP., AS,125.5644,-18.1919,28.78,1973,25.69,1976
DERBY POST OFFICE, AS,123.6292,-17.3044,29.35,1992,27.23,1984
COCKATOO ISLAND, AS,123.5942,-16.09,28.8,1973,27.56,1967
BIDYADANGA, AS,121.7803,-18.6844,28.64,2016,26.02,1976
DERBY AERO, AS,123.6611,-17.3706,29.89,2016,26.73,1976
CAMBALLIN, AS,124.1922,-17.9903,29.16,1973,28.36,1965
TALGARNO, AS,121.5,-19.2833,27.09,1961,26.7,1963
MOUNT BARNETT, AS,125.9086,-16.7372,25.76,1986,25.76,1986
CYGNET BAY, AS,123.0086,-16.4514,27.72,1998,25.72,1994
NITA DOWNS, AS,121.6764,-19.0861,27.87,1972,26.5,1966
KOOLAN ISLAND, AS,123.7764,-16.1306,28.41,1988,27.31,1985
CADJEBUT, AS,125.9875,-18.7267,30.0,1998,30.0,1998
CURTIN AERO, AS,123.8217,-17.5736,29.01,2005,27.24,2011
BROOME COMPARISON, AS,122.2339,-17.9492,27.62,1998,26.33,1997
FITZROY CROSSING AERO, AS,125.5619,-18.1814,29.43,2019,26.74,2011
WEST ROEBUCK, AS,122.3122,-17.8964,28.12,2010,26.04,2000
PORT HEDLAND POST OFFICE, AS,118.5742,-20.3139,27.09,1938,25.27,1929
MANDORA, AS,120.8436,-19.7419,27.9,2016,26.28,1982
MARBLE BAR COMPARISON, AS,119.7497,-21.1756,29.01,1991,26.4,1949
NULLAGINE, AS,120.1103,-21.8861,25.91,1980,24.3,1978
PARDOO STATION, AS,119.5811,-20.1078,27.69,1998,25.83,2000
PORT HEDLAND AIRPORT, AS,118.6317,-20.3725,27.68,2015,25.18,1956
ROEBOURNE, AS,117.1456,-20.7767,28.64,1996,26.07,1966
REDMONT, AS,119.0131,-21.9931,26.78,1977,25.4,1976
ABYDOS WOODSTOCK, AS,118.955,-21.62,25.84,1970,25.41,1975
GOLDSWORTHY, AS,119.5206,-20.3422,29.19,1991,27.93,1968
YANDEE, AS,118.8783,-21.3625,26.68,1972,26.68,1972
KARRATHA AERO, AS,116.7742,-20.7097,27.83,2019,25.91,2001
SHAY GAP, AS,120.1672,-20.4958,28.78,1991,27.12,1974
ROEBOURNE AERO, AS,117.1583,-20.7594,28.03,2010,26.26,2011
DAMPIER PORT, AS,116.7517,-20.6175,27.33,1996,26.07,1995
PORT HEDLAND MILOS AWS COMPARI, AS,118.6297,-20.3736,26.36,1999,26.01,2000
MARBLE BAR, AS,119.7497,-21.1756,29.19,2016,27.35,2012
LEARMONTH AIRPORT, AS,114.0967,-22.2406,25.8,2019,23.89,1992
MARDIE, AS,115.9797,-21.1906,27.39,1994,25.27,1966
ONSLOW, AS,115.1117,-21.6364,26.12,2010,24.09,1960
ONSLOW AIRPORT, AS,115.1092,-21.6689,27.17,2019,24.42,1952
VLAMINGH HEAD, AS,114.1072,-21.8067,24.2,1965,23.8,1966
WITTENOOM, AS,118.3358,-22.2425,27.55,1959,24.81,2000
EXMOUTH TOWN, AS,114.1256,-21.9303,25.8,1972,24.71,1970
EAST INTERCOURSE ISLAND, AS,116.6789,-20.6553,26.13,1967,25.93,1968
BARROW ISLAND, AS,115.3931,-20.8206,27.0,1988,25.05,1971
NAVY CHARLIE, AS,114.05,-22.3333,24.33,1970,24.33,1970
DAMPIER SALT, AS,116.7483,-20.7278,27.26,1980,25.56,1976
SAND HILL, AS,119.6172,-22.7825,25.75,1977,24.62,1978
PANNAWONICA, AS,116.3308,-21.6392,27.99,2002,26.46,2001
TOM PRICE, AS,117.7703,-22.6967,24.37,1998,22.55,2001
NAVY ALPHA, AS,114.1714,-21.8222,24.92,1973,24.66,1974
THEVENARD ISLAND, AS,115.0197,-21.4606,26.65,2019,25.98,2009
LEARMONTH MILOS AWS COMPARISON, AS,114.0869,-22.2367,24.59,1999,24.59,1999
BARROW ISLAND AIRPORT, AS,115.4056,-20.875,26.38,2019,25.3,2001
CARNARVON AIRPORT, AS,113.67,-24.8878,23.35,2013,21.06,1968
GASCOYNE JUNCTION, AS,115.21,-25.0544,25.31,1998,23.39,1984
HAMELIN POOL, AS,114.1667,-26.4008,22.76,1959,21.66,1968
DENHAM, AS,113.5319,-25.9261,23.66,2011,21.06,1993
CARNARVON POST OFFICE, AS,113.65,-24.9,22.53,1932,21.04,1908
EMU CREEK STATION, AS,115.0414,-23.0314,27.11,2010,25.0,1995
NANGA, AS,113.8064,-26.2564,22.33,1983,20.96,1986
BRICKHOUSE WOOLSHED, AS,113.8333,-24.8167,23.71,1976,21.92,1968
MURCHISON, AS,115.9561,-26.8936,23.64,2014,21.42,1992
SHARK BAY AIRPORT, AS,113.5772,-25.8925,23.34,2013,22.0,2005
CUE, AS,117.8994,-27.4233,22.67,1983,20.95,1966
MEEKATHARRA AIRPORT, AS,118.5372,-26.6136,24.84,2019,21.08,1960
MEEKATHARRA POST OFFICE, AS,118.4883,-26.5933,23.36,1940,21.05,1942
MOUNT MAGNET, AS,117.8503,-28.0619,22.45,1959,20.34,1960
MOUNT PHILLIP, AS,116.3078,-24.4,25.26,1994,24.25,1999
MUNDIWINDI, AS,120.2442,-23.7942,24.26,1959,22.06,1968
MURGOO, AS,116.4261,-27.3636,22.63,1980,21.19,1966
THREE RIVERS, AS,119.1514,-25.1256,23.06,1977,22.5,1978
YALGOO, AS,116.6828,-28.3392,21.82,1959,19.82,1963
PAYNES FIND, AS,117.6836,-29.2708,21.58,2015,19.27,1992
NEWMAN, AS,119.7314,-23.3683,25.51,1996,22.9,1966
NEWMAN AERO, AS,119.7989,-23.4169,26.17,2019,22.32,2000
PARABURDOO, AS,117.6692,-23.2028,27.03,1991,25.13,1995
PARABURDOO AERO, AS,117.7494,-23.1725,27.56,2019,24.33,2000
MEEKATHARRA MILOS AWS COMPARIS, AS,118.5367,-26.6131,22.32,1999,22.32,1999
MOUNT MAGNET AERO, AS,117.8425,-28.1156,23.47,2019,20.53,2000
CARNAMAH, AS,115.8869,-29.6889,20.5,1972,18.75,1942
NABAWA, AS,114.7897,-28.5008,20.42,1972,18.4,1917
DALWALLINU COMPARISON, AS,116.6619,-30.2772,19.97,1972,17.76,1968
GERALDTON TOWN, AS,114.605,-28.7769,20.56,1921,19.0,1908
GERALDTON AIRPORT, AS,114.6975,-28.7953,21.03,2011,18.4,1968
MOORA, AS,116.0072,-30.6417,19.26,1991,17.36,1971
MORAWA, AS,116.0089,-29.2103,20.91,2002,18.73,1946
MULLEWA, AS,115.5142,-28.5367,22.07,2014,19.41,1935
WONGAN HILLS, AS,116.7186,-30.8917,19.74,2015,17.11,1968
WONGAN HILLS RES.STATION, AS,116.7267,-30.8408,19.14,1994,17.24,1960
WALEBING, AS,116.1386,-30.665,18.93,1959,16.42,1917
ENEABBA POST OFFICE OLD SITE, AS,115.35,-29.8,19.57,1967,18.22,1968
ENEABBA, AS,115.2722,-29.8183,21.01,1983,19.54,1973
PERENJORI AMBULANCE, AS,116.2667,-29.45,20.54,1972,20.54,1972
KALBARRI, AS,114.165,-27.7119,22.59,2011,19.42,1971
NOKANENA, AS,114.5778,-28.3517,20.5,1977,19.01,1986
NORTH ISLAND, AS,113.5936,-28.3008,22.74,2011,20.83,2005
MORAWA AIRPORT, AS,116.0247,-29.2039,21.34,2019,19.76,2016
DALWALLINU, AS,116.6714,-30.2761,19.75,2014,18.21,2016
FREMANTLE, AS,115.75,-32.055,18.9,1972,17.37,1971
PERTH AIRPORT, AS,115.9764,-31.9275,19.84,2011,16.88,1968
PERTH REGIONAL OFFICE, AS,115.8667,-31.95,19.91,1978,17.17,1917
NEDLANDS UWA, AS,115.8192,-31.9861,18.97,1972,18.97,1972
BADGINGARRA RESEARCH STATION, AS,115.5394,-30.3381,19.73,2011,18.19,2005
ROTTNEST ISLAND LIGHTHOUSE, AS,115.5022,-32.0089,19.21,1983,17.33,1968
PEARCE RAAF, AS,116.0189,-31.6669,19.93,2011,18.11,2005
KALAMUNDA, AS,116.0594,-31.9822,16.62,1993,16.62,1993
KWINANA BP REFINERY, AS,115.7611,-32.2258,19.88,1999,17.27,1960
GOSNELLS CITY, AS,115.9839,-32.0486,19.69,2009,19.3,2002
KARNET, AS,116.0744,-32.44,17.48,1999,15.34,1971
LANCELIN, AS,115.33,-31.0164,20.19,2011,17.54,1968
WEST PERTH, AS,115.8453,-31.9508,18.35,1970,17.0,1968
JURIEN BAY, AS,115.0311,-30.3081,19.88,2012,17.88,1971
WALLISTON, AS,116.0692,-31.9942,17.26,1969,16.2,1971
SUBIACO TREATMENT PLANT, AS,115.7928,-31.9556,19.53,1999,18.39,1993
PERTH WEST, AS,115.85,-31.95,19.27,1972,19.27,1972
BENTLEY CURTIN, AS,115.8861,-32.0022,18.82,1972,17.94,1973
JANDAKOT AERO, AS,115.8794,-32.1011,19.34,2011,17.11,2005
GINGIN AERO, AS,115.8642,-31.4628,19.49,2011,17.52,2005
BEENYUP, AS,115.7772,-31.7858,18.23,1983,17.56,1980
ROTTNEST ISLAND, AS,115.5022,-32.0069,19.92,2011,18.22,2005
MEDINA RESEARCH CENTRE, AS,115.8075,-32.2208,19.06,2014,17.17,1986
GOOSEBERRY HILL, AS,116.0506,-31.9414,18.99,1999,18.08,2001
SWANBOURNE, AS,115.7619,-31.9558,20.2,2011,18.15,2005
PERTH METRO, AS,115.8728,-31.9192,19.85,2011,17.89,2005
BICKLEY, AS,116.1364,-32.0056,17.72,2011,16.09,2005
PERTH AIRPORT COMPARISON, AS,115.9639,-31.9356,18.73,2000,18.73,2000
GARDEN ISLAND HSF, AS,115.6839,-32.2433,19.89,2011,18.04,2005
ALBANY, AS,117.8808,-35.0289,16.9,2012,15.03,1929
BOYUP BROOK, AS,116.3894,-33.8325,16.22,1972,14.76,1971
BRIDGETOWN COMPARISON, AS,116.1375,-33.9575,16.76,2011,14.09,1917
BUNBURY POST OFFICE, AS,115.63,-33.3267,17.87,1983,15.98,1968
BUSSELTON SHIRE, AS,115.3456,-33.6611,17.42,1963,15.43,1960
CAPE LEEUWIN, AS,115.1358,-34.3728,18.2,2011,15.93,1968
CAPE NATURALISTE, AS,115.0189,-33.5372,18.39,2011,15.35,1960
DONNYBROOK, AS,115.8247,-33.5719,18.16,2011,15.02,1908
DWELLINGUP, AS,116.0594,-32.7103,17.25,2011,14.4,1960
ESPERANCE POST OFFICE, AS,121.8833,-33.85,17.17,1961,15.03,1908
ESPERANCE AERO, AS,121.8275,-33.6825,17.64,2014,15.85,1992
BUSSELTON, AS,115.3194,-33.655,17.5,1999,16.44,2005
MANDURAH PARK, AS,115.7664,-32.5031,19.43,1983,16.82,1968
MANJIMUP, AS,116.145,-34.2508,16.32,2011,13.52,1960
MARGARET RIVER, AS,115.0642,-33.9592,16.1,1974,16.0,1970
MOUNT BARKER, AS,117.6361,-34.625,16.06,1972,13.64,1917
PEMBERTON, AS,116.0433,-34.4478,16.9,2011,14.22,1971
BUSSELTON AERO, AS,115.4008,-33.6858,17.69,2011,15.95,2005
BRIDGETOWN, AS,116.1311,-33.9486,16.02,2015,14.82,2005
COLLIE, AS,116.1467,-33.36,16.78,1963,14.94,1971
ESPERANCE DOWNS RESEARCH STATION, AS,121.7828,-33.6031,17.0,1983,14.98,1955
DENMARK RES.STN., AS,117.37,-34.9511,15.1,1965,14.74,1966
WOKALUP, AS,115.8808,-33.1336,18.32,1983,16.65,1990
ALBANY AIRPORT, AS,117.8022,-34.9414,16.14,1983,14.54,1968
WITCHCLIFFE, AS,115.1042,-34.0281,16.86,2011,15.76,2008
METTLER, AS,118.5519,-34.5961,15.51,1988,14.19,1971
ECLIPSE ISLAND, AS,117.8833,-35.1833,16.31,1961,14.91,1960
ESPERANCE, AS,121.8925,-33.83,17.76,2014,16.33,1970
HARVEY, AS,115.8806,-33.0789,18.15,2011,16.7,2005
JARRAHWOOD, AS,115.6658,-33.7964,16.71,2011,14.5,1986
FRANKLAND VINEYARDS, AS,116.9944,-34.4417,15.56,1978,14.93,1980
MUNGLINUP, AS,120.8653,-33.7078,15.75,1971,15.75,1971
WINDY HARBOUR, AS,116.0308,-34.8361,16.5,2013,16.38,1999
LUDLOW, AS,115.4983,-33.6033,17.36,1988,16.33,1990
BUNBURY POWER STATION, AS,115.66,-33.3158,18.21,1988,17.09,1993
MANDURAH, AS,115.75,-32.5211,18.82,1996,18.36,1998
HOPETOUN NORTH, AS,120.1283,-33.9306,17.26,2011,15.85,2015
ROCKY GULLY, AS,117.0106,-34.5714,15.88,2013,14.63,2016
BUNBURY, AS,115.6447,-33.3567,18.07,2011,16.26,2005
SHANNON, AS,116.3367,-34.5683,15.73,2011,14.6,2016
MANDURAH, AS,115.7119,-32.5219,19.98,2011,18.09,2005
COLLIE EAST, AS,116.1717,-33.3608,16.61,2011,15.12,2008
NORTH WALPOLE, AS,116.7222,-34.9469,16.45,2013,15.42,2016
BENCUBBIN, AS,117.8603,-30.8081,19.7,2014,17.2,1968
CUNDERDIN, AS,117.2331,-31.6494,19.27,1972,16.83,1968
GOOMALLING, AS,116.8269,-31.2994,18.32,1969,17.16,1971
KELLERBERRIN, AS,117.7217,-31.6183,19.48,1938,16.69,1917
MERREDIN, AS,118.2789,-31.4756,19.6,2014,17.09,1971
MERREDIN RESEARCH STATION, AS,118.2242,-31.4994,18.88,1977,16.7,1960
NORTHAM, AS,116.6586,-31.6508,19.46,1921,16.89,1917
WYALKATCHEM, AS,117.3797,-31.1806,19.57,1972,16.65,1968
YORK POST OFFICE, AS,116.7581,-31.8836,18.63,1994,16.72,1971
MURESK AGRIC.COLLEGE, AS,116.6833,-31.75,18.59,1972,16.32,1960
BAKERS HILL CSIRO, AS,116.4781,-31.7603,17.93,1972,15.61,1968
CUNDERDIN AIRFIELD, AS,117.2217,-31.6219,19.17,2015,17.46,2001
YORK, AS,116.765,-31.8997,18.29,2011,16.91,2005
BEVERLEY, AS,116.9247,-32.1083,18.79,2013,16.52,1971
BROOKTON, AS,117.0072,-32.3725,18.09,2015,15.43,1968
CORRIGIN, AS,117.8733,-32.3292,18.09,2014,15.39,1968
HYDEN, AS,118.8983,-32.4419,18.6,2011,16.06,1971
KATANNING COMPARISON, AS,117.5553,-33.6886,16.72,1972,14.65,1917
KOJONUP, AS,117.159,-33.83,16.02,1978,14.97,1990
KONDININ, AS,118.2675,-32.4947,16.13,1971,16.13,1971
LAKE GRACE COMPARISON, AS,118.4625,-33.1006,17.52,1972,15.45,1960
NAREMBEEN, AS,118.3956,-32.0656,19.06,2015,16.66,1971
NARROGIN, AS,117.1797,-32.9342,17.28,2015,14.77,1955
ONGERUP, AS,118.4889,-33.9644,16.63,2014,14.26,1968
PINGELLY, AS,117.0831,-32.5336,17.91,2015,15.95,1986
RAVENSTHORPE, AS,120.0458,-33.5803,17.4,2015,15.73,1986
WAGIN, AS,117.3403,-33.3075,17.36,2015,15.23,1971
WANDERING COMPARISON, AS,116.6756,-32.6814,16.93,1999,14.42,1968
NEWDEGATE RESEARCH STATION, AS,118.84,-33.1131,16.74,2015,15.38,2016
JACUP, AS,119.1092,-33.8878,16.5,2014,15.24,2016
LAKE GRACE, AS,118.4647,-33.1006,17.64,2015,16.2,2016
KATANNING, AS,117.6064,-33.6856,16.7,2015,15.21,2016
WANDERING, AS,116.6706,-32.6722,16.89,2011,15.47,2016
EUCLA, AS,128.8792,-31.6797,18.9,2013,16.96,1986
FORREST AERO, AS,128.1139,-30.8389,18.77,1991,16.47,1960
RAWLINNA, AS,125.3294,-31.0119,19.27,1965,16.94,1960
BALLADONIA, AS,123.8653,-32.4569,18.09,2014,16.77,1968
EYRE, AS,126.3008,-32.2464,17.81,2019,16.11,1986
MOONERA, AS,126.5889,-31.7219,17.93,1973,17.93,1973
BALGAIR, AS,125.6589,-31.09,19.23,2005,18.13,2000
FORREST, AS,128.1092,-30.8453,19.63,2019,18.08,2001
RED ROCKS POINT, AS,127.5297,-32.2028,18.24,2014,17.31,2010
BOOYLGOO SPRING, AS,119.9078,-27.7556,21.1,1965,19.85,1966
NORSEMAN AERO, AS,121.7547,-32.2147,18.3,2019,16.56,2001
CASHMERE DOWNS, AS,119.5686,-28.97,20.85,1994,18.88,1975
KALGOORLIE BOULDER AIRPORT, AS,121.4533,-30.7847,19.67,2015,17.12,1960
KALGOORLIE POST OFFICE, AS,121.4667,-30.75,19.82,1912,17.65,1917
MUNGLINUP WEST, AS,120.6997,-33.5547,17.45,2014,16.27,2016
LAVERTON, AS,122.4072,-28.6306,21.16,1957,19.66,1968
LEONORA, AS,121.3303,-28.8836,22.44,1959,19.62,1975
MENZIES, AS,121.0297,-29.6939,20.93,1994,18.01,1975
NORSEMAN, AS,121.7794,-32.1981,18.22,1972,16.23,1960
SALMON GUMS RES.STN., AS,121.6239,-32.9869,17.3,2014,14.89,1946
SOUTHERN CROSS, AS,119.3281,-31.2319,19.04,1912,16.57,1917
YEELIRRIE, AS,120.0931,-27.2842,21.94,1991,19.59,1975
YAMARNA, AS,123.6556,-28.1664,21.21,1977,19.79,1993
BULGA DOWNS, AS,119.7436,-28.4967,21.85,2013,20.7,2006
LEONORA AERO, AS,121.3186,-28.8789,22.75,2019,20.64,2016
DIEMALS, AS,119.3031,-29.6694,20.39,1991,18.41,1975
WINDARRA, AS,122.2375,-28.49,20.85,1976,20.85,1976
MUNGLINUP MELALEUCA, AS,120.7578,-33.5969,16.65,1983,15.62,1993
LAVERTON AERO, AS,122.4236,-28.6133,22.67,2019,18.96,1992
LEINSTER AERO, AS,120.7031,-27.8386,22.61,2005,20.53,2001
SOUTHERN CROSS AIRFIELD, AS,119.3564,-31.2353,19.12,2013,17.19,2001
BALGO HILLS, AS,127.9867,-20.1417,28.05,2005,25.58,2000
WARBURTON AIRFIELD, AS,126.5839,-26.1317,24.74,2019,21.83,1999
WILUNA, AS,120.225,-26.5914,23.0,1994,20.66,1960
CARNEGIE, AS,122.9753,-25.7964,23.78,2015,21.89,2000
GILES METEOROLOGICAL OFFICE, AS,128.301,-25.0341,24.65,2019,20.57,1974
TELFER AERO, AS,122.2281,-21.7125,28.67,2019,25.57,2001
CAPE DON, AS,131.7667,-11.3167,28.05,1958,26.64,1977
MINJILANG, AS,132.5688,-11.1456,27.19,1975,26.52,1977
DARWIN AIRPORT, AS,130.8925,-12.4239,28.72,2016,26.8,1943
DARWIN POST OFFICE, AS,130.8,-12.4,29.11,1892,27.18,1940
DARWIN AIRPORT COMPARISON, AS,130.8844,-12.4227,28.21,2005,27.17,2006
MIDDLE POINT AWS, AS,131.2988,-12.605,28.03,2010,26.66,2006
OENPELLI, AS,133.0581,-12.3263,28.73,1983,27.32,1967
MIDDLE POINT, AS,131.3145,-12.5781,27.57,1981,26.57,1967
MILIKAPITI, AS,130.6758,-11.4258,27.26,1969,26.45,1965
PIRLANGIMPI, AS,130.4217,-11.4022,28.37,2010,26.54,1982
MILTON SPRINGS, AS,131.0,-13.2167,27.14,1973,27.14,1973
BLACK POINT, AS,132.143,-11.1538,28.0,2009,27.42,1997
DARWIN REGIONAL OFFICE, AS,130.8333,-12.4667,28.36,1973,27.66,1972
JABIRU AIRPORT, AS,132.8939,-12.6594,29.75,2016,27.85,1985
GUNN POINT PRISON FARM, AS,131.0428,-12.2522,27.63,1988,26.67,1994
CAPE DON, AS,131.7651,-11.3081,29.32,2013,28.29,2009
CHANNEL POINT, AS,130.1225,-13.1672,26.94,1996,26.54,2000
POINT STUART AWS, AS,131.8785,-12.2435,28.53,2016,27.4,2014
BATCHELOR AERO, AS,131.0252,-13.0545,28.43,2016,26.53,2011
MCCLUER ISLAND, AS,132.9791,-11.0468,28.89,2016,27.51,2012
DUM IN MIRRIE AWS, AS,130.3725,-12.635,27.98,2013,27.18,2012
MANINGRIDA, AS,134.2263,-12.0482,27.89,1998,26.22,1977
WARRUWI, AS,133.3796,-11.6502,28.27,1988,27.0,1967
MILINGIMBI, AS,134.9078,-12.1239,27.5,2002,26.55,1967
MILINGIMBI AWS, AS,134.8919,-12.0931,28.89,2016,27.52,2014
MANINGRIDA AERO, AS,134.2339,-12.0569,27.96,2010,26.74,2006
YIRRKALA MISSION, AS,136.8833,-12.25,27.22,1973,26.01,1963
GALIWINKU, AS,135.5648,-12.028,28.04,1973,26.52,1977
ANGURUGU, AS,136.4333,-13.9833,26.84,1981,24.58,1965
ALYANGULA POLICE, AS,136.4198,-13.8483,27.45,2005,26.81,2001
GOVE AIRPORT, AS,136.8203,-12.2741,27.97,2016,25.91,1972
NHULUNBUY DTW, AS,136.7637,-12.1939,27.64,1983,26.36,1977
WALLABY BEACH, AS,136.71,-12.1933,27.8,1981,26.78,1982
NGAYAWILI, AS,135.5726,-11.9971,28.31,2016,26.7,2006
GROOTE EYLANDT AIRPORT AWS, AS,136.4631,-13.9747,27.69,2016,25.91,2011
SAINT VIDGEON, AS,133.3686,-16.2553,26.25,1974,26.25,1974
NGUKURR, AS,134.7274,-14.7295,27.78,1964,26.87,1965
LARRIMAH, AS,133.2138,-15.5748,28.16,1986,25.2,2011
DALY WATERS, AS,133.37,-16.253,25.87,1975,25.02,1976
DALY WATERS AWS, AS,133.3782,-16.2636,27.94,1958,24.77,2011
BULMAN AWS, AS,134.3414,-13.6714,28.95,2016,26.93,2007
ROPER BAR STORE, AS,134.5291,-14.7356,28.65,1986,26.7,1977
DALY WATERS HI WAY INN, AS,133.3833,-16.3167,26.68,1983,26.68,1983
CENTRE ISLAND, AS,136.8192,-15.7426,28.9,2016,26.47,1977
MCARTHUR RIVER MINE, AS,136.076,-16.4423,28.96,2016,26.19,2011
WOLLOGORANG, AS,137.9462,-17.2122,26.96,2005,25.55,2006
BORROLOOLA, AS,136.3,-16.0667,26.13,1965,26.13,1965
VANDERLIN ISLAND MIMETS, AS,137.05,-15.8333,26.05,1967,26.05,1967
BORROLOOLA, AS,136.3041,-16.0757,27.29,2017,25.46,2011
AUVERGNE, AS,130.0098,-15.6844,28.29,1979,26.52,1976
VICTORIA RIVER DOWNS, AS,131.0145,-16.403,28.59,2016,25.66,2011
LAJAMANU, AS,130.6358,-18.3325,28.12,2019,24.34,2011
KEEP RIVER NTA, AS,129.1667,-15.4167,27.64,1971,27.64,1971
WAVE HILL, AS,131.1166,-17.3871,28.25,1998,25.06,1974
KIDMAN SPRINGS, AS,130.9558,-16.1176,28.31,2010,26.77,2006
TIMBER CREEK, AS,130.4808,-15.6614,29.14,1992,26.83,2011
DOUGLAS RIVER, AS,131.1872,-13.8345,28.27,2016,26.67,1999
KATHERINE COUNCIL, AS,132.2572,-14.4589,28.16,1983,26.41,1967
KATHERINE AVIATION MUSEUM, AS,132.2737,-14.4437,28.33,1998,26.25,2006
KATHERINE EXP. FARM, AS,132.25,-14.4833,26.9,1965,26.9,1965
WOOLIANA, AS,130.6367,-13.6817,26.81,1968,26.81,1968
CENTRAL ARNHEM PLATEAU, AS,133.0861,-13.3275,27.22,2016,25.43,2006
TINDAL RAAF, AS,132.3826,-14.5229,28.61,2016,26.15,2011
MANGO FARM, AS,130.6834,-13.7379,27.92,2010,26.5,1994
PORT KEATS AERO, AS,129.5282,-14.2495,28.46,2016,27.17,2004
DELAMERE WEAPONS RANGE, AS,131.9182,-15.7442,28.39,2019,25.95,2011
BRADSHAW, AS,130.8092,-14.9408,29.64,2019,28.01,2004
PINE CREEK COUNCIL, AS,131.8321,-13.8242,28.01,2009,26.69,2006
WONARAH, AS,136.3358,-19.8983,26.48,1958,25.26,1960
BRUNETTE DOWNS, AS,135.945,-18.637,27.57,1988,24.31,1976
TENNANT CREEK POST OFFICE, AS,134.1896,-19.6475,27.08,1942,24.27,1939
NEWCASTLE WATERS POST OFFICE, AS,133.4,-17.3833,27.66,1973,25.22,1976
ELLIOTT, AS,133.5407,-17.5521,28.13,2019,25.16,1982
TENNANT CREEK AIRPORT, AS,134.1833,-19.6423,27.51,2019,24.04,1974
ALI CURUNG, AS,134.4029,-21.0025,25.64,2005,23.88,1997
CURTIN SPRINGS, AS,131.7571,-25.3139,22.93,2013,19.99,1976
BARROW CREEK, AS,133.8901,-21.5317,24.61,1965,22.68,1975
FINKE POST OFFICE, AS,134.5667,-25.5833,23.35,1973,20.22,1976
AYERS ROCK, AS,131.0583,-25.34,21.77,1973,20.64,1969
YUENDUMU, AS,131.8017,-22.2562,24.37,1998,21.83,2000
ALICE SPRINGS POST OFFICE, AS,133.8683,-23.71,22.47,1928,19.27,1908
RINGWOOD, AS,134.9555,-23.8289,22.11,1971,19.18,1976
RABBIT FLAT, AS,130.0161,-20.1883,25.99,1988,23.54,1976
TEMPE DOWNS, AS,132.4524,-24.3996,20.7,1970,19.99,1974
ALICE SPRINGS AIRPORT, AS,133.889,-23.7951,22.44,2013,18.52,1976
ARLTUNGA, AS,134.6849,-23.4564,22.03,2005,19.54,2011
JERVOIS, AS,136.1442,-22.9494,24.06,2005,20.49,1976
KULGERA, AS,133.3027,-25.8428,22.4,2013,19.8,1989
PAPUNYA, AS,131.9156,-23.2044,23.91,2002,23.91,2002
PALM VALLEY, AS,132.7444,-24.0636,22.44,1986,21.42,1984
YULARA AERO, AS,130.9737,-25.1896,23.51,2019,21.15,2000
TERRITORY GRAPE FARM, AS,133.6377,-22.4518,23.71,2019,21.87,2011
WATARRKA, AS,131.5488,-24.2914,24.2,2005,21.39,2001
ULURU RANGERS, AS,131.0196,-25.3602,22.56,1996,21.63,1999
WALUNGURRU, AS,129.38,-23.27,27.57,2019,25.03,2011
RABBIT FLAT, AS,130.0148,-20.1824,26.65,2019,23.81,2011
WOOMERA AERODROME, AS,136.8054,-31.1558,20.68,2019,18.03,1956
COOBER PEDY, AS,134.7564,-29.004,21.91,1991,20.06,1989
ERNABELLA, AS,132.1283,-26.2925,20.5,1963,17.93,1974
NONNING, AS,136.4926,-32.5226,18.62,2009,16.59,1992
TARCOOLA, AS,134.5694,-30.7111,19.99,1980,18.52,1970
YUDNAPINNA, AS,137.1505,-32.1232,19.15,1965,18.11,1971
ANDAMOOKA, AS,137.1692,-30.449,21.83,2013,19.54,1992
MIRIKATA, AS,135.2464,-29.8767,18.69,1966,18.69,1966
MOUNT IVE, AS,136.0671,-32.4398,18.56,2015,18.49,2017
MARLA POLICE STATION, AS,133.6201,-27.3002,21.85,1991,19.86,1989
ROXBY DOWNS OLYMPIC DAM, AS,136.8703,-30.4494,20.33,1994,20.28,1993
COOBER PEDY AIRPORT, AS,134.7222,-29.0347,21.94,2013,20.12,2010
PORT AUGUSTA ARID LANDS, AS,137.7386,-32.4783,19.49,2000,18.37,1995
ROXBY DOWNS OLYMPIC DAM AEROD, AS,136.8772,-30.4829,21.1,2014,19.49,2010
ERNABELLA PUKATJA, AS,132.1771,-26.2635,21.68,2019,19.05,2010
TARCOOLA AERO, AS,134.5786,-30.7051,20.91,2013,19.3,2010
LEIGH CREEK AERO, AS,138.4075,-30.4667,20.79,1980,18.44,1956
MARREE FARINA, AS,138.2739,-30.066,20.56,1919,18.33,1909
MARREE COMPARISON, AS,138.0637,-29.6481,23.09,2014,19.65,1946
OODNADATTA AIRPORT, AS,135.4456,-27.5553,23.37,2013,20.57,1976
MOUNT DARE, AS,135.2471,-26.0702,22.92,1999,22.49,1997
MOOMBA, AS,140.2102,-28.1125,22.84,1980,20.34,1976
ARKAROOLA, AS,139.3357,-30.311,19.74,2009,17.38,1984
LEIGH CREEK AIRPORT, AS,138.4219,-30.5963,20.94,2019,18.67,1986
OODNADATTA POLICE STATION, AS,135.4439,-27.5445,22.9,1990,22.9,1990
MOOMBA AIRPORT, AS,140.1956,-28.0997,23.49,2017,21.0,2010
MARREE AERO, AS,138.0684,-29.6587,22.19,2014,20.59,2010
CEDUNA POST OFFICE, AS,133.6725,-32.1267,16.99,1942,16.12,1943
CEDUNA AMO, AS,133.6976,-32.1297,18.44,2013,15.87,1949
CLEVE, AS,136.4937,-33.7011,17.98,2013,15.66,1958
FOWLERS BAY, AS,132.4372,-31.99,17.4,1957,15.77,1964
KIMBA, AS,136.4125,-33.1414,17.71,2005,16.24,1969
KYANCUTTA, AS,135.5552,-33.1332,18.5,2013,15.99,1952
MINNIPA AGRICULTURAL CENTRE, AS,135.15,-32.8361,18.24,1991,16.73,1966
ELLISTON, AS,134.888,-33.6501,17.85,2013,15.65,1978
PORT LINCOLN, AS,135.8558,-34.7225,17.69,2000,14.97,1905
STREAKY BAY, AS,134.2116,-32.7963,19.09,2013,16.83,1964
WUDINNA AERO, AS,135.4519,-33.043,18.44,2013,17.38,2010
WHYALLA NORRIE, AS,137.5328,-33.0303,18.99,2000,17.26,1992
NULLARBOR, AS,130.8976,-31.4492,18.34,2013,16.43,1992
COOK, AS,130.4136,-30.6143,19.07,1965,17.6,1958
MARALINGA, AS,131.579,-30.1591,19.34,1963,19.01,1957
NEPTUNE ISLAND, AS,136.1174,-35.3365,17.26,2013,15.65,1987
CLEVE AERODROME, AS,136.5026,-33.7081,17.74,2007,16.56,2010
WHYALLA AERO, AS,137.5205,-33.0539,18.58,2013,16.83,1984
POLDA GUM VIEW, AS,135.2928,-33.5085,17.39,1991,16.02,1970
PORT LINCOLN TOD RIVER, AS,135.8511,-34.4906,15.82,1975,14.8,1986
COULTA COLES POINT, AS,135.3741,-34.3749,16.93,2009,16.15,2016
NORTH SHIELDS PORT LINCOLN AW, AS,135.8784,-34.5993,17.16,2013,15.55,1995
MINNIPA DPI, AS,135.1515,-32.8427,18.58,2013,17.62,2001
PORT AUGUSTA AERO, AS,137.7144,-32.5091,19.94,2009,18.79,2010
HAWKER, AS,138.435,-31.8846,18.88,2009,16.78,1976
PORT AUGUSTA POST OFFICE, AS,137.7667,-32.5,19.35,1959,18.47,1958
YONGALA, AS,138.7489,-33.0287,15.74,2007,13.81,1964
PORT AUGUSTA POWER STATION, AS,137.79,-32.528,19.82,1991,18.33,1964
WILPENA POUND, AS,138.6093,-31.5286,16.56,1980,15.56,1968
YUNTA, AS,139.5611,-32.5819,17.45,1990,15.66,1986
GLUEPOT RESERVE GLUEPOT, AS,140.1251,-33.7622,17.94,2009,16.93,2012
YUNTA AIRSTRIP, AS,139.5645,-32.5707,17.74,2013,16.49,2008
CLARE POST OFFICE, AS,138.6125,-33.8364,15.6,1961,14.14,1958
GEORGETOWN, AS,138.393,-33.359,16.77,1961,15.36,1964
PORT PIRIE NYRSTAR COMPARISON, AS,138.0104,-33.1708,19.95,2000,17.31,1958
SNOWTOWN, AS,138.2133,-33.7844,17.42,2000,15.13,1909
PORT PIRIE AERODROME, AS,138.001,-33.2341,18.6,2013,18.37,2014
CLARE HIGH SCHOOL, AS,138.5933,-33.8226,15.84,2007,14.91,1997
SNOWTOWN RAYVILLE PARK, AS,138.2182,-33.7676,17.21,2007,16.15,2002
KADINA, AS,137.6953,-33.9551,17.69,2000,16.01,1970
MAITLAND, AS,137.6733,-34.3745,17.66,2013,15.11,1960
WAROOKA, AS,137.3995,-34.9906,17.31,2013,15.78,1969
ALTHORPE ISLAND, AS,136.8594,-35.3725,16.38,1980,15.34,1978
TROUBRIDGE SHOAL LIGHTHOUSE, AS,137.8333,-35.1167,17.36,1980,16.22,1970
MINLATON AERO, AS,137.5276,-34.748,17.42,2013,16.49,2010
EDITHBURGH, AS,137.7395,-35.1121,16.96,2013,15.79,2003
STENHOUSE BAY, AS,136.9392,-35.2795,17.38,2013,16.19,2003
KADINA AWS, AS,137.6628,-33.9703,17.34,2007,16.5,2012
CAPE BORDA COMPARISON, AS,136.5938,-35.7529,15.84,2000,13.96,1964
CAPE DE COUEDIC, AS,136.7,-36.0667,15.45,1971,15.45,1971
CAPE WILLOUGHBY, AS,138.1327,-35.8426,16.46,2013,14.52,1970
KINGSCOTE, AS,137.6364,-35.6569,16.59,2000,14.43,1958
PARNDANA EAST RESEARCH STATION, AS,137.3333,-35.8,14.6,1980,13.62,1964
CAPE BORDA, AS,136.5959,-35.7549,16.06,2013,15.08,2006
KINGSCOTE AERO, AS,137.5231,-35.7114,15.82,2013,14.67,2006
ADELAIDE WEST TERRACE, AS,138.5869,-34.9254,18.13,1914,15.75,1952
PARAFIELD AIRPORT, AS,138.6281,-34.7977,17.96,2007,15.5,1949
PENFIELD WEAPONS RESEARCH, AS,138.65,-34.7333,17.26,1961,16.15,1958
ROSEWORTHY AGRIC COLLEGE, AS,138.6883,-34.5267,17.38,1982,15.55,1958
ADELAIDE WAITE INSTITUTE, AS,138.6331,-34.9697,17.38,1980,16.14,1970
ADELAIDE AIRPORT, AS,138.5204,-34.9524,17.65,2007,15.37,1958
ADELAIDE PARAFIELD PLANT INTR, AS,138.6242,-34.7833,17.89,1982,15.2,1960
ADELAIDE NORTHFIELD RESEARCH, AS,138.6517,-34.8533,17.69,1982,16.33,1978
EDINBURGH RAAF, AS,138.6222,-34.7111,17.83,2013,16.09,1978
ADELAIDE KENT TOWN, AS,138.6216,-34.9211,18.35,2007,16.41,1978
ADELAIDE BLACK HILL CONSERVAT, AS,138.7167,-34.8833,17.12,1980,16.16,1984
ROSEWORTHY AWS, AS,138.6763,-34.5106,17.24,2018,16.49,2005
KAPUNDA, AS,138.9155,-34.3412,16.44,1959,15.07,1964
NURIOOTPA COMPARISON, AS,139.0047,-34.4767,15.62,1982,13.91,1964
ROSEDALE TURRETFIELD RESEARCH, AS,138.8342,-34.5519,17.27,2007,15.24,1964
NURIOOTPA VITICULTURAL, AS,139.0056,-34.4761,16.02,2013,14.69,1998
BELAIR KALYRA, AS,138.6147,-35.0042,15.95,1967,14.81,1964
MOUNT BARKER, AS,138.8509,-35.0639,15.58,2007,13.13,1958
STIRLING, AS,138.7167,-35.0333,14.08,1961,12.7,1958
STRATHALBYN, AS,138.8901,-35.256,16.49,2000,14.68,1964
VICTOR HARBOR COMPARISON, AS,138.6217,-35.555,16.71,2000,15.44,1969
MOUNT CRAWFORD FOREST HEADQUAR, AS,138.9469,-34.7122,13.74,1988,12.73,1992
STIRLING POST OFFICE, AS,138.7167,-35.0,13.85,1980,12.69,1969
LENSWOOD RESEARCH CENTRE, AS,138.8071,-34.9482,14.58,1988,13.24,1970
VICTOR HARBOR ENCOUNTER BAY, AS,138.5997,-35.5544,16.02,2013,14.79,2003
KERSBROOK FOREST RSVE, AS,138.85,-34.8167,14.67,1980,14.67,1980
MOUNT LOFTY, AS,138.7088,-34.9784,13.58,2014,11.12,1995
GOOLWA HINDMARSH ISLAND MARIN, AS,138.7989,-35.5147,16.04,2000,14.91,1992
PARAWA SECOND VALLEY FOREST A, AS,138.2864,-35.5695,14.77,2013,13.29,1998
MOUNT CRAWFORD MT CRAWFORD AW, AS,138.9273,-34.7253,15.08,2007,14.3,2010
NOARLUNGA, AS,138.5057,-35.1586,17.88,2013,16.72,2003
KUITPO FOREST RESERVE, AS,138.6783,-35.1712,15.44,2013,14.44,2004
HINDMARSH ISLAND AWS, AS,138.8177,-35.5194,16.75,2018,15.81,2006
BERRI IRRIGATION, AS,140.6,-34.2833,17.31,1962,17.31,1962
RENMARK, AS,140.7494,-34.1711,18.35,2000,16.89,1976
LOXTON RESEARCH CENTRE, AS,140.6,-34.4333,17.05,1981,15.78,1984
LOXTON RESEARCH CENTRE, AS,140.5978,-34.439,17.47,2009,15.48,1986
BERRI, AS,140.5964,-34.2717,17.87,1967,17.06,1964
WAIKERIE GOLDEN HEIGHTS, AS,139.9378,-34.1944,17.12,1990,16.1,1984
WAIKERIE CADELL, AS,139.7583,-34.0569,17.07,1991,16.68,1987
RENMARK AERO, AS,140.6766,-34.1983,18.07,2009,16.74,1998
EUDUNDA, AS,139.0847,-34.1754,16.32,2019,14.3,1992
MENINGIE, AS,139.3375,-35.6902,16.59,2013,14.91,1970
MURRAY BRIDGE COMPARISON, AS,139.2592,-35.1234,17.54,2013,15.63,1970
MILANG DEPARTMENT OF AGRIC., AS,138.9667,-35.4167,14.95,1967,14.6,1966
NILDOTTIE, AS,139.6513,-34.6762,16.26,1967,16.26,1967
STRATHALBYN RACECOURSE, AS,138.8934,-35.2836,16.65,2013,15.37,2003
MURRAY BRIDGE PALLAMANA AEROD, AS,139.2273,-35.065,16.73,2007,15.79,2010
KAROONDA, AS,139.8972,-35.09,17.0,2013,15.91,2003
LOXTON WANBI RESEARCH CENTRE, AS,140.2733,-34.7797,16.21,1973,15.15,1969
CALIPH, AS,140.2432,-34.6345,16.9,1988,15.47,1992
KEITH, AS,140.3556,-36.098,16.65,2007,14.65,1964
LAMEROO COMPARISON, AS,140.5175,-35.3288,17.26,2007,14.75,1964
BORDERTOWN, AS,140.7667,-36.3,14.51,1969,14.35,1970
KEITH MUNKORA, AS,140.3273,-36.1058,16.05,2007,15.01,2004
LAMEROO AUSTIN PLAINS, AS,140.5378,-35.3778,16.46,2009,15.78,2006
CAPE NORTHUMBERLAND, AS,140.6725,-38.0573,14.25,1981,13.22,1978
KYBYBOLITE RESEARCH CENTRE, AS,140.9286,-36.8803,14.86,1988,13.4,1970
LUCINDALE POST OFFICE, AS,140.3664,-36.9731,15.28,1980,14.45,1984
MOUNT BURR FOREST RESERVE, AS,140.4197,-37.5575,14.7,1961,13.0,1964
MOUNT GAMBIER POST OFFICE, AS,140.7833,-37.8333,14.71,1921,12.69,1949
MOUNT GAMBIER AERO, AS,140.7739,-37.7473,14.88,2007,12.28,1943
NARACOORTE, AS,140.7402,-36.9564,15.92,2000,13.98,1969
ROBE COMPARISON, AS,139.756,-37.1628,15.46,2000,13.49,1905
PENOLA STATE FOREST RESERVE, AS,140.8269,-37.4886,14.22,1975,14.2,1982
COONAWARRA, AS,140.8333,-37.3,14.48,1974,13.63,1970
KONETTA E AND WS, AS,140.1167,-37.2667,14.14,1974,13.35,1977
PADTHAWAY, AS,140.4864,-36.5958,15.42,1988,14.3,1996
COONAWARRA, AS,140.8254,-37.2906,14.98,2014,13.57,1986
CAPE JAFFA THE LIMESTONE, AS,139.7164,-36.9655,15.46,2013,14.2,1995
NARACOORTE AERODROME, AS,140.727,-36.9813,15.45,2014,14.36,2003
PADTHAWAY SOUTH, AS,140.5212,-36.6539,15.7,2007,14.68,2004
ROBE AIRFIELD, AS,139.8054,-37.1776,15.05,2007,14.02,2006
COEN POST OFFICE, AS,143.2006,-13.9447,25.79,1970,24.79,1965
COEN AIRPORT EVAP, AS,143.1178,-13.7642,26.95,1998,25.15,1982
MORETON TELEGRAPH STATION, AS,142.6389,-12.4536,26.7,1981,26.45,1970
THURSDAY ISLAND MO, AS,142.21,-10.5853,27.64,1956,25.94,1965
WEIPA EASTERN AVE, AS,141.8836,-12.6267,27.74,1988,26.4,1963
WEIPA AERO, AS,141.9208,-12.6778,28.36,2016,26.87,1993
COCONUT ISLAND, AS,143.0686,-10.0511,29.48,2016,27.94,2006
HORN ISLAND, AS,142.29,-10.5844,28.42,2016,27.2,2006
COEN AIRPORT, AS,143.1183,-13.7606,27.21,2016,25.86,2011
SCHERGER RAAF, AS,142.0869,-12.6167,27.7,2013,27.09,2011
PALMERVILLE, AS,144.0758,-16.0008,26.71,1983,24.82,1904
MUSGRAVE, AS,143.5036,-14.7803,27.17,2010,24.89,1996
LOCKHART RIVER AIRPORT, AS,143.3047,-12.785,27.0,2010,24.8,1972
BURKETOWN POST OFFICE, AS,139.5475,-17.7425,27.62,1988,24.38,1894
CLONCURRY AERO, AS,140.5083,-20.6717,26.6,1942,23.92,1950
CROYDON TOWNSHIP, AS,142.2447,-18.2044,28.28,2013,25.67,1976
JULIA CREEK POST OFFICE, AS,141.7458,-20.6569,26.92,1988,23.77,1976
KARUMBA AIRPORT, AS,140.8319,-17.4561,26.28,1942,24.68,1939
KOWANYAMA AIRPORT, AS,141.7483,-15.4818,28.52,2016,26.82,2000
MORNINGTON ISLAND, AS,139.1837,-16.664,27.67,2002,24.89,1976
NORMANTON POST OFFICE, AS,141.0672,-17.6706,28.75,1988,26.7,1974
JULIA CREEK AIRPORT, AS,141.7214,-20.6672,26.51,2017,24.12,2012
NORMANTON AIRPORT, AS,141.0733,-17.6872,28.49,2016,26.44,2011
BURKETOWN AIRPORT, AS,139.5356,-17.7483,27.58,2013,25.97,2011
TOORAK RESEARCH STATION, AS,141.8008,-21.0344,26.24,2003,24.28,2000
MOUNT ISA POST OFFICE, AS,139.4833,-20.7333,25.57,1965,24.2,1960
MOUNT ISA MINE, AS,139.4817,-20.7361,27.14,1988,23.9,1974
MOUNT ISA AERO, AS,139.4875,-20.6778,26.05,1988,23.12,2011
SWEERS ISLAND, AS,139.5981,-17.1142,27.55,2013,25.97,2011
CLONCURRY AIRPORT, AS,140.505,-20.6664,27.65,2013,24.5,2011
MOUNT ISA COMPARISON, AS,139.4831,-20.6786,23.83,1997,23.83,1997
CENTURY MINE, AS,138.7056,-18.7569,28.12,2013,25.47,2011
GEORGETOWN POST OFFICE, AS,143.5483,-18.2922,26.97,1988,24.26,1894
HUGHENDEN AIRPORT, AS,144.2333,-20.8192,26.07,2017,23.55,2011
HUGHENDEN POST OFFICE, AS,144.1986,-20.8447,25.49,1988,23.28,1974
MOUNT SURPRISE TOWNSHIP, AS,144.3183,-18.1472,24.57,1958,22.94,1976
RICHMOND POST OFFICE, AS,143.1425,-20.7289,26.59,2013,22.74,1894
GEORGETOWN AIRPORT, AS,143.5306,-18.3039,27.14,2016,24.65,2011
RICHMOND AIRPORT, AS,143.1167,-20.7017,26.4,2013,24.02,2012
CAIRNS POST OFFICE, AS,145.7833,-16.9333,25.54,1915,23.78,1941
CAIRNS AERO, AS,145.7458,-16.8736,26.1,2016,23.96,1972
COOKTOWN POST OFFICE, AS,145.25,-15.4633,26.31,1981,24.85,1965
COOKTOWN MISSION STRIP, AS,145.1861,-15.4486,26.42,1998,25.08,1997
HERBERTON WHITE ST, AS,145.3869,-17.5851,20.69,1973,19.34,1972
KAIRI RESEARCH STATION, AS,145.5656,-17.215,21.6,1998,19.57,1982
LOW ISLES LIGHTHOUSE, AS,145.5592,-16.3842,27.29,2016,25.45,1972
PORT DOUGLAS WARNER ST, AS,145.4643,-16.484,24.61,1967,24.42,1968
MAREEBA QWRC, AS,145.4253,-16.995,22.39,1957,22.25,1959
PARADA RESEARCH STATION, AS,145.24,-17.1467,22.76,1970,21.88,1967
KOOMBOOLOOMBA DAM, AS,145.5956,-17.84,20.98,1973,19.02,1982
FITZROY ISLAND LIGHTHOUSE, AS,146.0033,-16.9267,25.55,1986,24.52,1976
WALKAMIN RESEARCH STATION, AS,145.4281,-17.1347,23.11,2010,21.31,1982
MAREEBA AIRPORT, AS,145.4294,-17.0706,24.15,1998,22.58,1997
GREEN ISLAND, AS,145.9719,-16.7614,26.66,2002,25.31,2000
ATHERTON, AS,145.4803,-17.255,21.24,1998,19.79,1997
COOKTOWN AIRPORT, AS,145.1861,-15.4461,26.68,2016,25.14,2011
MAREEBA AIRPORT, AS,145.4283,-17.0672,24.37,2016,22.85,2011
CAPE FLATTERY, AS,145.3106,-14.9672,27.39,2016,26.27,2012
CARDWELL MARINE PDE, AS,146.0197,-18.2553,25.27,1973,23.49,1961
CAPE CLEVELAND LIGHTHOUSE, AS,147.0167,-19.1833,25.31,1986,24.21,1960
INNISFAIL, AS,146.0345,-17.5249,25.16,2016,22.76,1972
SOUTH JOHNSTONE EXPERIMENTAL STATION, AS,145.9972,-17.6053,24.93,2016,22.54,1965
TOWNSVILLE AERO, AS,146.7661,-19.2483,25.86,2016,22.75,1941
BOTTOM OF PIN GIN HILL, AS,145.9667,-17.5333,24.52,1973,22.98,1965
INGHAM COMPOSITE, AS,146.1769,-18.6494,24.99,1998,23.5,1994
COWLEY JTTRE, AS,146.1167,-17.6833,24.13,1979,24.13,1979
LUCINDA POINT, AS,146.3861,-18.5203,25.42,2016,24.17,2007
TOWNSVILLE AERO COMPARISON, AS,146.7647,-19.2492,25.24,1998,23.97,2000
BURDEKIN SHIRE COUNCIL, AS,147.4075,-19.5775,24.18,1895,22.58,1904
AYR DPI RESEARCH STATION, AS,147.3758,-19.6169,24.98,2016,22.9,1953
BOWEN POST OFFICE, AS,148.25,-20.0167,25.43,1986,24.23,1977
COLLINSVILLE POST OFFICE, AS,147.8464,-20.5534,25.01,2016,22.17,1960
MACKAY AERO, AS,149.1794,-21.1706,23.79,2016,21.72,1951
MACKAY POST OFFICE, AS,149.1833,-21.15,23.44,1942,21.14,1925
TE KOWAI EXPERIMENTAL STATION, AS,149.1192,-21.1642,23.63,1931,21.12,1960
PINE ISLET LIGHTHOUSE, AS,150.2167,-21.6667,24.52,1986,23.38,1960
PROSERPINE POST OFFICE, AS,148.5833,-20.4,23.32,1971,22.71,1977
ST LAWRENCE POST OFFICE, AS,149.5356,-22.3458,23.94,2005,21.73,1960
PACIFIC HEIGHTS, AS,150.7342,-23.0967,22.74,1973,21.29,1972
MILLAROO DPI, AS,147.2739,-20.0464,24.78,1987,22.81,1965
HAMILTON ISLAND AIRPORT, AS,148.9536,-20.3658,24.88,2016,23.4,2011
MACKAY M.O, AS,149.2169,-21.1172,23.9,2016,21.8,1960
WILLIAMSON, AS,150.1786,-22.4703,23.42,2016,21.88,2011
ST LAWRENCE, AS,149.5242,-22.3472,23.82,2016,22.23,2012
PROSERPINE AIRPORT, AS,148.555,-20.4925,24.08,2016,22.68,2000
HAMILTON ISLAND AIRPORT, AS,148.9508,-20.3531,24.61,1992,23.68,2000
BOWEN AIRPORT, AS,148.2152,-20.0151,24.82,1998,23.39,2000
YEPPOON THE ESPLANADE, AS,150.7506,-23.1364,22.93,2017,21.53,2012
ALVA BEACH, AS,147.4833,-19.4569,25.2,2016,23.62,2014
MACKAY COMPARISON, AS,149.215,-21.1183,23.72,1998,22.7,2000
WOOLSHED, AS,146.5364,-19.4167,22.51,2016,21.05,2008
SAMUEL HILL AERO, AS,150.6578,-22.7433,22.21,2017,20.96,2008
CHARTERS TOWERS POST OFFICE, AS,146.2614,-20.0781,24.96,1987,22.29,1960
MORANBAH WATER TREATMENT PLANT, AS,148.0308,-21.9947,24.34,2005,22.19,1989
CHARTERS TOWERS AIRPORT, AS,146.2708,-20.0464,25.13,2016,22.75,2000
CLERMONT SIRIUS ST, AS,147.6425,-22.8239,23.83,2002,21.72,1978
EMERALD POST OFFICE, AS,148.1617,-23.5267,24.13,1915,20.09,1891
ROLLESTON, AS,148.6261,-24.4619,22.38,2002,21.25,1994
SPRINGSURE COMET ST, AS,148.0856,-24.123,22.83,2005,20.74,2011
TAMBO POST OFFICE, AS,146.2564,-24.8819,22.32,2017,19.62,1960
TAROOM POST OFFICE, AS,149.7958,-25.6408,22.7,2017,19.8,1961
BRIGALOW RESEARCH STATION, AS,149.8003,-24.8353,22.44,1993,20.52,1984
EMERALD AIRPORT, AS,148.1756,-23.5694,24.1,2019,21.76,2011
BLACKWATER WATER TREATMENT PLA, AS,148.8746,-23.5953,23.38,2001,22.3,2000
BARCALDINE POST OFFICE, AS,145.2883,-23.5544,25.04,2017,22.31,1978
ISISFORD POST OFFICE, AS,144.4406,-24.2591,24.94,2017,22.73,2011
LONGREACH POST OFFICE, AS,144.25,-23.45,24.76,1942,21.59,1917
LONGREACH AERO, AS,144.2769,-23.4372,25.32,2017,22.08,1976
BLACKALL AIRPORT, AS,145.4306,-24.4303,24.11,2017,21.37,2011
TWIN HILLS POST OFFICE, AS,146.9517,-21.95,23.88,1969,22.59,1966
BLACKALL TOWNSHIP, AS,145.4672,-24.4214,23.6,1995,21.76,1976
CAMOOWEAL TOWNSHIP, AS,138.1214,-19.9225,27.26,2013,23.79,1974
THE MONUMENT AIRPORT, AS,139.9267,-21.8125,25.81,2013,23.54,2010
TREPELL AIRPORT, AS,140.8925,-21.84,26.22,2013,23.82,2010
WINTON AIRPORT, AS,143.0836,-22.3617,26.17,2017,23.72,2010
URANDANGI, AS,138.3136,-21.6119,26.06,1998,23.57,1978
WINTON POST OFFICE, AS,143.0386,-22.3908,25.8,2005,22.76,1974
BEDOURIE POLICE STATION, AS,139.4714,-24.3597,25.1,2005,24.64,2004
BIRDSVILLE POLICE STATION, AS,139.3486,-25.9003,24.23,2004,21.76,1976
BOULIA AIRPORT, AS,139.9039,-22.9117,25.78,2006,20.52,1894
WINDORAH POST OFFICE, AS,142.6564,-25.4228,25.13,2005,22.2,2010
BIRDSVILLE AIRPORT, AS,139.3472,-25.8975,25.19,2017,22.7,2010
BARALABA POST OFFICE, AS,149.8117,-24.1819,23.24,2005,21.43,1989
BILOELA DPI, AS,150.5164,-24.3789,21.83,1991,20.18,1974
BULBURIN FORESTRY, AS,151.4667,-24.5333,19.13,1957,17.81,1961
BUNDABERG POST OFFICE, AS,152.3467,-24.8667,23.15,1897,20.48,1917
BUSTARD HEAD LIGHTHOUSE, AS,151.7642,-24.0222,22.24,1980,21.21,1972
CAPE CAPRICORN LIGHTHOUSE, AS,151.2333,-23.4833,22.25,1986,20.94,1960
GAYNDAH POST OFFICE, AS,151.6094,-25.6258,22.64,1897,19.42,1927
KALPOWAR FORESTRY, AS,151.3047,-24.6925,18.52,1963,18.21,1968
LADY ELLIOT ISLAND, AS,152.7161,-24.1116,24.09,2019,22.51,1961
GAYNDAH AIRPORT, AS,151.6156,-25.6167,22.47,2019,20.53,2011
ROCKHAMPTON AERO, AS,150.4775,-23.3753,23.96,2016,21.37,1960
SANDY CAPE LIGHTHOUSE, AS,153.2089,-24.7298,23.23,1998,21.64,1963
THANGOOL AIRPORT, AS,150.5709,-24.4935,22.29,2019,19.99,2011
MONTO TOWNSHIP, AS,151.1247,-24.8642,21.07,1988,19.42,1974
HERON ISLAND RES STATION, AS,151.9131,-23.4422,24.33,2005,23.0,1963
GLADSTONE RADAR, AS,151.2628,-23.8553,24.4,2005,22.41,1974
BUNDABERG AERO, AS,152.3235,-24.8885,22.57,2019,20.41,1960
NORTH REEF LIGHTHOUSE, AS,151.9,-23.1833,23.66,1976,23.08,1972
NARAYEN RES STATION, AS,150.8689,-25.6875,21.19,1991,19.43,1974
HERON ISLAND, AS,151.9178,-23.4483,23.96,1983,23.96,1983
SEVENTEEN SEVENTY, AS,151.8875,-24.1542,23.0,2019,21.24,1989
RUNDLE ISLAND, AS,151.2763,-23.5293,23.41,2016,22.3,2011
GLADSTONE AIRPORT, AS,151.2214,-23.8697,23.5,2019,22.15,2011
MONTO AIRPORT, AS,151.0997,-24.8931,20.66,1998,19.33,2000
AMBERLEY AMO, AS,152.7111,-27.6297,21.21,1973,19.19,1984
BEAUDESERT CRYNA, AS,153.0131,-28.0206,20.0,1977,19.1,1970
CALOUNDRA SIGNAL STATION, AS,153.15,-26.8017,20.94,1980,19.48,1984
CAPE MORETON LIGHTHOUSE, AS,153.4661,-27.0314,22.19,2017,19.93,1961
COOLANGATTA BOWLS COMP, AS,153.5383,-28.1783,21.69,1973,20.54,1976
DOUBLE ISLAND POINT LIGHTHOUSE, AS,153.1906,-25.9319,22.8,2019,20.39,1961
UNIVERSITY OF QUEENSLAND GATTO, AS,152.3375,-27.5436,21.48,2019,19.19,1971
GYMPIE, AS,152.6414,-26.1831,21.43,1988,19.72,1994
IPSWICH, AS,152.7608,-27.6117,21.12,1990,20.72,1989
KINGAROY PRINCE STREET, AS,151.8456,-26.5544,19.33,1973,16.73,1960
MALENY TAMARIND ST, AS,152.8519,-26.7528,19.35,2009,18.17,2003
MARYBOROUGH, AS,152.7156,-25.5161,22.18,1998,19.92,1960
SOMERSET DAM, AS,152.555,-27.1147,20.64,1958,20.04,1968
SOUTHPORT RIDGEWAY AVE, AS,153.4054,-27.9832,21.13,1973,19.43,1966
MOUNT TAMBORINE FERN ST, AS,153.1952,-27.9695,18.45,1973,17.02,1974
POINT LOOKOUT, AS,153.5456,-27.4361,22.36,2009,21.44,1999
ARCHERFIELD AIRPORT, AS,153.0078,-27.5717,21.62,2019,19.28,1948
BRISBANE REGIONAL OFFICE, AS,153.0306,-27.4778,21.94,1973,19.77,1887
BRISBANE AERO, AS,153.1142,-27.4178,21.51,1973,19.91,1994
SAMFORD CSIRO, AS,152.8861,-27.3617,19.85,1988,18.52,1972
TEWANTIN POST OFFICE, AS,153.0408,-26.3919,21.72,1973,19.42,1901
NAMBOUR DPI, AS,152.9392,-26.6431,20.75,2005,19.24,1967
BEERBURRUM FOREST STATION, AS,152.9619,-26.9586,21.3,2017,20.15,2011
COOLANGATTA AERO, AS,153.5036,-28.1661,19.73,1967,19.52,1966
MOUNT GLORIOUS FAHEY RD, AS,152.7717,-27.3342,18.13,1991,16.61,1974
KIRKLEAGH, AS,152.5642,-27.0258,20.23,1971,20.01,1970
HERVEY BAY AIRPORT, AS,152.8817,-25.322,22.18,2017,20.86,2000
COOLUM BOWLS CLUB, AS,153.0897,-26.53,20.41,1980,19.71,1978
BRIAN PASTURES, AS,151.745,-25.655,22.1,2006,20.25,1974
GATTON QDPI RESEARCH STATION, AS,152.3289,-27.5456,20.93,2005,19.29,1971
TOOLARA FORESTRY, AS,152.8335,-25.9963,19.74,1981,19.44,1982
GLENLOGAN FIELD STATION, AS,153.0,-27.8333,20.52,1973,19.03,1974
TOOLARA KELLY, AS,152.8608,-25.9714,22.27,2002,20.99,2011
JIMNA FORESTRY, AS,152.4606,-26.6644,18.5,2016,17.21,2008
REDCLIFFE COUNCIL, AS,153.1006,-27.245,21.82,1998,20.36,1986
COOLANGATTA, AS,153.5053,-28.1681,21.22,2017,19.64,1984
GOLD COAST SEAWAY, AS,153.4283,-27.939,21.95,2005,20.8,1995
HERVEY BAY WILDLIFE PARK, AS,152.8153,-25.2903,22.29,1998,21.11,1994
BRISBANE AERO, AS,153.1292,-27.3917,21.26,2017,20.02,1999
BAROON POCKET DAM, AS,152.8719,-26.715,19.12,1999,19.12,1999
CANUNGRA LAND WARFARE CENTRE, AS,153.1794,-28.0272,18.56,1995,18.42,1997
LOGAN CITY WATER TREATMENT, AS,153.1947,-27.6839,21.62,2019,19.72,1994
RAINBOW BEACH, AS,153.0891,-25.9007,21.7,1998,20.45,1994
MAROOCHYDORE AERO, AS,153.0903,-26.6006,21.53,2017,20.16,2000
TEWANTIN RSL PARK, AS,153.0403,-26.3911,21.93,2017,20.62,2000
BRISBANE, AS,153.0389,-27.4808,22.45,2019,20.75,2008
KINGAROY AIRPORT, AS,151.8398,-26.5737,19.48,2019,17.89,2012
REDCLIFFE, AS,153.0922,-27.2169,21.78,2017,20.52,2008
CAMBOOYA POST OFFICE, AS,151.865,-27.7072,18.11,1991,16.55,1978
DALBY POST OFFICE, AS,151.2639,-27.1839,20.65,1902,18.14,1917
GOONDIWINDI POST OFFICE, AS,150.3075,-28.5481,21.03,1915,18.07,1908
HERMITAGE, AS,152.1003,-28.2061,18.2,1998,15.93,1966
STANTHORPE LESLIE PARADE, AS,151.9339,-28.6617,16.71,1998,14.08,1960
INGLEWOOD FOREST, AS,150.9363,-28.3429,19.07,2012,18.8,2011
TEXAS POST OFFICE, AS,151.1681,-28.8544,20.92,2019,17.77,1971
TOOWOOMBA, AS,151.9317,-27.5836,18.24,1980,16.25,1960
APPLETHORPE, AS,151.9533,-28.6217,15.95,2017,14.03,1974
WARWICK DRAGON ST, AS,152.0258,-28.2247,18.52,1973,16.87,1971
INGLEWOOD TOBACCO RES, AS,150.9333,-28.5,19.33,1973,17.48,1976
OAKEY AERO, AS,151.7413,-27.4034,19.76,2019,17.38,1976
GOONDIWINDI AIRPORT, AS,150.3256,-28.5211,20.98,2014,19.31,1996
DALBY AIRPORT, AS,151.2634,-27.1605,20.56,2005,18.46,2011
WARWICK, AS,152.1003,-28.2061,19.1,2019,16.98,2008
TOOWOOMBA AIRPORT, AS,151.9134,-27.5425,19.1,2019,17.05,2011
MILES POST OFFICE, AS,150.1844,-26.6581,20.76,2002,18.72,1962
MILES CONSTANCE STREET, AS,150.1819,-26.6569,21.18,2019,19.42,2011
INJUNE POST OFFICE, AS,148.5669,-25.8428,21.17,2019,18.9,2011
MITCHELL POST OFFICE, AS,147.9777,-26.4888,21.42,2017,18.66,1976
ROMA POST OFFICE, AS,148.7897,-26.5719,21.72,1958,19.38,1978
ST GEORGE POST OFFICE, AS,148.5814,-28.0361,21.86,1980,19.75,1976
SURAT, AS,149.0703,-27.159,21.77,2019,19.52,1976
ROMA AIRPORT, AS,148.7778,-26.5442,21.55,2019,18.86,1994
ST GEORGE AIRPORT, AS,148.5942,-28.0489,22.14,2019,19.76,2010
BOLLON MARY ST, AS,147.4803,-28.0336,21.97,2009,18.95,1976
CHARLEVILLE AERO, AS,146.2558,-26.4139,22.91,2017,18.67,1956
CHARLEVILLE POST OFFICE, AS,146.2381,-26.4025,22.6,1938,19.15,1891
CUNNAMULLA POST OFFICE, AS,145.6808,-28.0706,23.24,2017,20.39,2010
GILRUTH PLAINS, AS,145.9833,-28.1,21.08,1965,20.07,1964
CHARLEVILLE AERO COMPARISON, AS,146.2608,-26.4147,22.31,2005,21.32,2004
ADAVALE POST OFFICE, AS,144.6,-25.9167,22.91,1969,21.25,1974
BALLERA GAS FIELD, AS,141.8114,-27.4008,24.58,2017,23.57,2004
QUILPIE AIRPORT, AS,144.2578,-26.6125,23.96,2005,21.33,1974
THARGOMINDAH POST OFFICE, AS,143.8197,-27.9978,23.19,2003,20.94,1964
THARGOMINDAH AIRPORT, AS,143.815,-27.9867,24.07,2017,22.17,2012
WILCANNIA AERODROME AWS, AS,143.385,-31.5194,20.47,2009,19.02,2011
TIBOOBURRA POST OFFICE, AS,142.0098,-29.4345,22.23,2009,18.05,1931
WHITE CLIFFS POST OFFICE, AS,143.0893,-30.8506,21.18,2005,18.58,1974
WILCANNIA REID ST, AS,143.3747,-31.5631,20.48,2014,18.54,1966
TIBOOBURRA AIRPORT, AS,142.0567,-29.4448,22.47,2017,19.91,2010
FOWLERS GAP AWS, AS,141.7017,-31.0867,20.81,2019,19.2,2011
WHITE CLIFFS AWS, AS,143.0742,-30.8517,21.68,2017,19.56,2010
BROKEN HILL PATTON STREET, AS,141.4676,-31.9759,19.86,2013,16.63,1958
LAKE VICTORIA STORAGE, AS,141.2652,-34.0398,18.35,2013,16.77,1970
MENINDEE POST OFFICE, AS,142.4173,-32.3937,20.32,2013,18.59,1995
POONCARIE MAIL AGENCY, AS,142.5696,-33.3856,19.55,2013,18.27,2010
BROKEN HILL STEPHENS CREEK RE, AS,141.593,-31.8803,17.54,1969,17.54,1969
BROKEN HILL AIRPORT AWS, AS,141.4694,-32.0012,19.45,2019,16.58,1992
WENTWORTH POST OFFICE, AS,141.9189,-34.1065,18.31,1961,16.96,1964
BROKEN HILL RFDS, AS,141.5333,-31.9333,18.32,1980,17.24,1984
BOURKE POST OFFICE, AS,145.9358,-30.0917,21.9,1884,18.73,1956
BREWARRINA HOSPITAL, AS,146.8651,-29.9614,21.37,2005,19.0,1976
COBAR MO, AS,145.8294,-31.484,20.7,2018,17.5,1984
COBAR POST OFFICE, AS,145.8,-31.5,22.21,1889,17.4,1933
COLLARENEBRI ALBERT ST, AS,148.5818,-29.5407,20.92,2005,19.09,1971
GOODOOGA POST OFFICE, AS,147.4543,-29.1142,21.53,1973,19.74,1970
WANAARING POST OFFICE, AS,144.1482,-29.7029,21.7,2019,19.52,1998
COBAR AIRPORT AWS, AS,145.7964,-31.5389,20.08,2019,17.91,2010
BOURKE AIRPORT, AS,145.952,-30.0423,20.56,1997,19.77,1995
LIGHTNING RIDGE VISITORS INFOR, AS,147.9722,-29.431,21.58,2013,20.12,1999
COBAR COMPARISON, AS,145.8281,-31.4861,19.34,1999,19.21,1998
BOURKE AIRPORT AWS, AS,145.9521,-30.0362,21.87,2019,19.81,2000
IVANHOE AERODROME AWS, AS,144.3088,-32.8831,20.08,2014,18.12,2010
BALRANALD RSL, AS,143.561,-34.6398,18.25,2018,16.2,1996
EUSTON POST OFFICE, AS,142.7333,-34.5833,16.02,1969,15.83,1966
IVANHOE POST OFFICE, AS,144.2995,-32.8999,19.87,2009,17.17,1976
CONDOBOLIN RETIREMENT VILLAGE, AS,147.1524,-33.0818,18.65,1981,16.79,1984
WEST WYALONG AIRPORT AWS, AS,147.1962,-33.9382,17.91,2009,16.03,2012
PEAK HILL POST OFFICE, AS,148.1902,-32.7235,19.81,2019,16.85,1976
TULLAMORE OLD POST OFFICE, AS,147.5659,-32.6309,18.22,1982,16.08,1976
CONDOBOLIN AG RESEARCH STATION, AS,147.2283,-33.0664,18.94,2009,15.78,1976
CONDOBOLIN SOIL CONSERVATION, AS,147.15,-33.0833,18.41,1980,16.74,1976
CONDOBOLIN AIRPORT AWS, AS,147.2133,-33.0682,19.49,2019,16.84,2000
COONAMBLE COMPARISON, AS,148.3806,-30.9753,19.97,2002,18.0,1984
GILGANDRA CHELMSFORD AVE, AS,148.6625,-31.7055,17.64,1975,16.49,1970
NYNGAN AIRPORT, AS,147.1961,-31.5495,20.07,2005,17.82,1976
TRANGIE POST OFFICE, AS,147.9826,-32.0322,18.76,1973,17.72,1971
TRANGIE RESEARCH STATION AWS, AS,147.9489,-31.9861,20.27,2019,16.43,1976
NARROMINE AIRPORT, AS,148.2333,-32.2167,17.85,1973,16.82,1971
WARREN AUSCOTT, AS,147.7667,-31.7833,17.86,1975,17.04,1974
COONAMBLE AIRPORT AWS, AS,148.3798,-30.9776,20.7,2019,18.2,2010
MUNGINDI POST OFFICE, AS,148.9899,-28.9786,22.37,2019,20.15,1999
WALGETT COUNCIL DEPOT, AS,148.1218,-30.0236,20.96,1980,17.59,1891
WALGETT AIRPORT AWS, AS,148.1223,-30.0372,21.17,2019,18.84,2010
BARADINE FORESTRY, AS,149.0654,-30.9469,17.68,1969,17.68,1969
MOREE POST OFFICE, AS,149.9,-29.5,20.4,1957,18.58,1962
NARRABRI WEST POST OFFICE, AS,149.7552,-30.3401,20.09,1980,17.87,1962
MOREE COMPARISON, AS,149.8383,-29.4819,20.46,1980,18.23,1971
MOREE AERO, AS,149.8458,-29.4914,21.46,2019,18.69,1996
BARRABA POST OFFICE, AS,150.6096,-30.3781,17.52,2009,15.28,1984
WARIALDA POST OFFICE, AS,150.5754,-29.5416,17.31,1975,16.6,1971
NARRABRI AIRPORT AWS, AS,149.8302,-30.3154,21.04,2019,18.59,2008
PINDARI DAM, AS,151.2448,-29.3899,18.72,1973,16.7,1984
GUNNEDAH POOL, AS,150.254,-30.9841,19.88,1919,16.91,1918
GUNNEDAH RESOURCE CENTRE, AS,150.2687,-31.0261,19.98,2018,16.51,1956
QUIRINDI POST OFFICE, AS,150.6792,-31.5086,18.92,2019,15.98,2008
TAMWORTH AIRPORT, AS,150.8467,-31.0867,18.32,1980,16.31,1970
WOOLBROOK DANGLEMAH ROAD, AS,151.3451,-30.9672,15.45,2019,11.88,1970
GUNNEDAH AIRPORT AWS, AS,150.2494,-30.9537,19.08,2018,17.18,2008
TAMWORTH AIRPORT AWS, AS,150.8362,-31.0742,19.19,2019,16.57,2008
ARMIDALE RADIO STATION 2AD, AS,151.6681,-30.5167,14.92,1980,12.94,1971
DEEPWATER POST OFFICE, AS,151.8483,-29.4421,13.9,1969,12.74,1971
GLEN INNES POST OFFICE, AS,151.7366,-29.7368,15.05,2005,12.92,1971
GLEN INNES AG RESEARCH STATION, AS,151.6936,-29.6953,14.5,1980,12.36,1971
GUYRA POST OFFICE, AS,151.6714,-30.2204,11.16,1971,11.16,1971
INVERELL COMPARISON, AS,151.1114,-29.7783,17.18,1965,14.06,1895
INVERELL RESEARCH CENTRE, AS,151.0819,-29.7752,18.66,2019,15.61,1971
MOUNT TOPPER STATE FOREST, AS,151.2167,-29.9167,15.12,1967,14.06,1971
TENTERFIELD FEDERATION PARK, AS,152.0172,-29.0479,15.79,1973,13.83,1974
ARMIDALE TREE GROUP NURSERY, AS,151.6697,-30.5264,14.5,2019,12.45,2008
GUYRA HOSPITAL, AS,151.6787,-30.2126,13.72,2019,10.83,1984
ARMIDALE AIRPORT AWS, AS,151.6158,-30.5273,15.01,2019,12.86,2011
INVERELL RAGLAN ST, AS,151.1121,-29.7796,17.08,2018,14.94,1996
GLEN INNES AIRPORT AWS, AS,151.694,-29.678,14.4,2019,12.65,2008
GIRARD STATE FOREST, AS,152.3,-28.9,15.44,1965,14.88,1966
JEOGLA JEOLGA OLD.SF.SITE, AS,152.1833,-30.6167,12.94,1969,12.94,1969
URBENVILLE STATE FOREST, AS,152.55,-28.4667,17.56,1958,16.7,1959
GLEN INNES MT MITCHELL FOREST, AS,152.0936,-29.646,12.72,1971,12.63,1967
TABULAM MUIRNE, AS,152.4507,-28.7551,19.26,2019,16.39,1974
BYRON BAY CAPE BYRON LIGHTHOU, AS,153.6361,-28.6388,20.63,1991,19.56,2003
YAMBA PILOT STATION, AS,153.3633,-29.4333,20.78,2019,18.64,1944
LISMORE CENTRE STREET, AS,153.2628,-28.807,20.56,1973,18.72,1994
ROSEBERRY STATE FOREST NURSERY, AS,152.9167,-28.4833,19.06,1965,18.36,1966
TABBIMOBILE STATE FOREST, AS,153.2667,-29.2,23.24,1965,23.24,1965
TYALGUM COODGEE STREET, AS,153.2078,-28.36,19.82,1973,18.46,1974
WHIAN WHIAN RUMMERY PARK, AS,153.3783,-28.5988,16.78,1965,16.32,1966
CASINO AIRPORT, AS,153.0493,-28.8755,20.7,2009,19.06,1984
BROADWATER SUGAR MILL, AS,153.4333,-29.0167,20.53,1973,18.74,1966
GRAFTON RESEARCH STATION, AS,152.9605,-29.6224,20.78,2016,19.44,2011
GRAFTON OLYMPIC POOL, AS,152.9278,-29.6823,20.72,1998,18.94,1967
ALSTONVILLE TROPICAL FRUIT RES, AS,153.4556,-28.8521,20.39,1973,18.65,1978
MURWILLUMBAH BRAY PARK, AS,153.3809,-28.3395,20.97,2005,19.38,1981
GRAFTON AIRPORT AWS, AS,153.0297,-29.7583,20.08,2019,18.68,2008
BALLINA AIRPORT AWS, AS,153.5585,-28.8353,20.19,2016,19.19,2003
CASINO AIRPORT AWS, AS,153.052,-28.8775,20.73,2019,19.09,2008
EVANS HEAD RAAF BOMBING RANGE, AS,153.3964,-29.183,20.8,2016,19.17,2008
LISMORE AIRPORT AWS, AS,153.2616,-28.8343,19.9,2016,19.02,2011
BYRON BAY CAPE BYRON AWS, AS,153.6358,-28.6399,21.06,2019,19.9,2012
LISMORE RICHMOND HILL, AS,153.3409,-28.7853,20.37,2009,19.46,2008
BELLINGEN POST OFFICE, AS,152.8979,-30.4519,20.04,1973,18.1,1960
KEMPSEY AIRPORT AWS, AS,152.7717,-31.0711,19.0,2017,17.73,2008
KEMPSEY WIDE STREET, AS,152.8235,-31.077,19.65,1973,18.12,1994
SOUTH WEST ROCKS SMOKY CAPE L, AS,153.087,-30.9225,21.0,2016,18.83,1984
COFFS HARBOUR MO, AS,153.1187,-30.3107,19.63,1973,17.51,1961
SOUTH SOLITARY ISLAND, AS,153.2667,-30.2,19.53,1970,19.41,1971
BELLINGEN THE OBSERVATORY, AS,152.8667,-30.4167,19.11,1988,18.9,1987
DORRIGO OLD CORAMBA RD, AS,152.7187,-30.3442,15.9,2019,14.0,1999
FORSTER TUNCURRY R.V.C.P., AS,152.5089,-32.1756,19.18,2016,17.78,2008
HARRINGTON OXLEY ANCHORAGE CA, AS,152.6827,-31.8714,18.08,1971,17.22,1966
PORT MACQUARIE BELLEVUE GARDE, AS,152.911,-31.4399,19.1,1973,16.97,1960
TAREE RADIO STATION 2RE, AS,152.4834,-31.8986,19.39,2001,17.36,1966
YARRAS MOUNT SEAVIEW, AS,152.2482,-31.3865,19.61,2019,16.8,1971
PORT MACQUARIE AIRPORT AWS, AS,152.8655,-31.4336,18.87,2017,17.72,1996
TAREE AIRPORT AWS, AS,152.512,-31.8896,19.03,2017,17.81,2008
CESSNOCK POST OFFICE, AS,151.3661,-32.8272,18.5,1965,17.92,1966
KULNURA WILLIAM ROAD, AS,151.2,-33.2333,17.42,1980,15.65,1974
MURRURUNDI POST OFFICE, AS,150.8363,-31.7651,16.69,1965,14.75,1984
MUSWELLBROOK LOWER HILL ST, AS,150.8847,-32.2611,16.87,1970,16.61,1971
NELSON BAY NELSON HEAD, AS,152.1612,-32.7103,19.67,2017,18.31,1971
NEWCASTLE NOBBYS SIGNAL STATIO, AS,151.7985,-32.9185,19.34,2019,17.17,1960
RATHMINES AMO, AS,151.6,-33.05,17.72,1946,16.57,1948
SCONE PHILIP STREET, AS,150.8708,-32.0458,18.93,1980,16.66,1984
RAYMOND TERRACE WALLAROO STAT, AS,151.8877,-32.618,16.56,1965,16.39,1967
WILLIAMTOWN RAAF, AS,151.8359,-32.7932,19.18,2019,17.03,1960
JERRYS PLAINS POST OFFICE, AS,150.9093,-32.4972,18.83,1980,16.91,1960
GOSFORD NARARA RESEARCH STATI, AS,151.3289,-33.3949,17.72,2009,16.28,1970
SCONE SOIL CONSERVATION SERVICE, AS,150.9272,-32.0632,18.75,1980,16.69,1984
MARYVILLE, AS,151.75,-32.9131,19.14,1980,18.07,1978
CESSNOCK NULKABA, AS,151.349,-32.8093,18.63,1998,16.97,1976
PATERSON TOCAL AWS, AS,151.5919,-32.6296,19.4,2019,17.16,1972
MAITLAND WEST AERO, AS,151.4667,-32.7,17.17,1969,17.0,1970
CESSNOCK AIRPORT AWS, AS,151.3377,-32.7886,18.76,2019,16.61,2008
NORAH HEAD LIGHTHOUSE, AS,151.5759,-33.2815,18.94,1980,17.43,1992
SINGLETON ARMY, AS,151.1717,-32.6133,19.43,1980,17.93,1972
MERRIWA ROSCOMMON, AS,150.1737,-32.1852,18.06,2019,16.47,2015
LOSTOCK DAM, AS,151.4595,-32.3322,18.62,1991,16.84,1984
PEATS RIDGE WARATAH ROAD, AS,151.2443,-33.3102,17.15,2004,15.76,1992
SCONE AIRPORT AWS, AS,150.8264,-32.0335,19.25,2019,16.25,2008
NORAH HEAD AWS, AS,151.5766,-33.2815,19.58,2019,18.13,2008
SINGLETON WATER BOARD, AS,151.1589,-32.5687,17.85,1993,17.29,1992
MANGROVE MOUNTAIN AWS, AS,151.2107,-33.2894,17.59,2016,16.39,2012
MAITLAND VISITORS CENTRE, AS,151.5683,-32.7427,18.39,2009,17.66,1999
NEWCASTLE UNIVERSITY, AS,151.707,-32.8905,18.81,2007,18.26,2003
MURRURUNDI GAP AWS, AS,150.7937,-31.7416,16.34,2005,14.61,2008
SINGLETON STP, AS,151.1743,-32.5918,18.6,2016,17.18,2012
CASSILIS POST OFFICE, AS,149.9815,-32.0051,16.12,1973,15.15,1974
CASSILIS DALKEITH, AS,149.9856,-31.9963,15.73,1965,14.76,1966
GULGONG POST OFFICE, AS,149.5329,-32.3634,17.7,2018,14.98,1971
MUDGEE GEORGE STREET, AS,149.5956,-32.5956,16.2,1973,14.49,1971
NULLO MOUNTAIN AWS, AS,150.229,-32.7244,13.2,2002,11.46,2008
MUDGEE AIRPORT AWS, AS,149.6149,-32.5628,16.9,2019,14.62,1996
BATHURST GAOL, AS,149.55,-33.4167,15.52,1919,12.03,1859
BATHURST AGRICULTURAL STATION, AS,149.5559,-33.4289,14.95,2019,12.09,1970
BLAYNEY POST OFFICE, AS,149.26,-33.535,12.15,1973,11.0,1972
ORANGE CANOBOLAS STATE FOREST, AS,149.0231,-33.3934,12.56,1965,11.53,1966
COWRA POST OFFICE, AS,148.7,-33.9,16.38,1965,15.26,1964
COWRA RESEARCH CENTRE EVANS S, AS,148.7071,-33.8087,17.58,2009,15.09,1966
GURNANG STATE FOREST OBERON Y, AS,149.8369,-34.0111,10.79,1973,9.34,1971
OBERON JENOLAN CAVES, AS,150.0227,-33.8199,12.2,1969,11.06,1966
KATOOMBA MURRI ST, AS,150.3087,-33.7122,14.01,2016,11.33,1984
LIDSDALE STATE FOREST, AS,150.05,-33.45,11.8,1965,10.13,1974
MILLTHORPE INALA, AS,149.1847,-33.4455,13.06,1973,11.66,1971
MOUNT VICTORIA MT VICTORIA S, AS,150.2544,-33.5917,12.91,1980,11.11,1970
MULLION CREEK MULLION RANGE F, AS,149.128,-33.0934,13.16,1965,12.16,1966
LITHGOW NEWNES FOREST CENTRE, AS,150.2383,-33.3675,12.33,1973,11.23,1974
OBERON SPRINGBANK, AS,149.8374,-33.6774,12.28,2017,10.2,1970
ORANGE POST OFFICE, AS,149.1,-33.2833,14.23,1959,11.5,1966
SPRINGWOOD BOWLING CLUB, AS,150.5848,-33.7065,18.1,2019,16.5,2008
KIRKCONNELL PRISON CAMP, AS,149.85,-33.4167,10.99,1973,10.89,1969
CARCOAR ICELY STREET, AS,149.1333,-33.6167,13.66,1973,13.66,1973
LITHGOW BIRDWOOD ST, AS,150.1498,-33.4901,13.42,1980,11.31,1971
LITHGOW COOERWULL, AS,150.1303,-33.4769,13.35,2017,12.72,2015
WENTWORTH FALLS COUNTRY CLUB, AS,150.3665,-33.6976,12.51,1969,12.2,1972
ORANGE AIRPORT COMPARISON, AS,149.1229,-33.3815,13.29,2009,10.76,1970
ORANGE WOLAROI, AS,149.1167,-33.3,12.13,1972,11.43,1971
ORANGE AGRICULTURAL INSTITUTE, AS,149.0828,-33.3211,13.51,2006,11.39,1992
BATHURST AIRPORT AWS, AS,149.654,-33.412,14.89,2019,12.87,1999
MOUNT BOYCE AWS, AS,150.2741,-33.6185,13.86,2019,11.26,1992
OBERON JENOLAN CAVES ROAD, AS,149.8822,-33.74,10.37,1996,10.37,1996
ORANGE AIRPORT AWS, AS,149.127,-33.3813,13.5,2019,11.56,2000
COONABARABRAN NAMOI STREET, AS,149.2714,-31.2712,17.41,2019,14.77,2000
DUNEDOO POST OFFICE, AS,149.3964,-32.0159,18.69,2019,15.74,1976
COONABARABRAN AIRPORT AWS, AS,149.2699,-31.3304,18.75,2019,15.99,2008
DUBBO DARLING STREET, AS,148.6089,-32.2385,18.34,1938,15.93,1956
FORBES CAMP STREET, AS,148.0081,-33.3892,19.03,1914,15.35,1875
MOLONG KING ST, AS,148.8598,-33.0866,15.2,1973,13.64,1964
PARKES MACARTHUR STREET, AS,148.1639,-33.1419,18.64,2009,16.0,1992
WELLINGTON AGROWPLOW, AS,148.9503,-32.5635,18.23,2018,15.88,1976
WELLINGTON RESEARCH CENTRE, AS,148.9708,-32.5059,17.72,2002,15.62,1970
PARKES AIRPORT AWS, AS,148.2428,-33.1281,17.75,2019,15.76,2012
DUBBO AIRPORT AWS, AS,148.5753,-32.2206,19.23,2019,16.59,1996
COWRA AIRPORT COMPARISON, AS,148.6534,-33.8451,17.13,2009,14.42,1970
FORBES AIRPORT AWS, AS,147.9205,-33.3627,18.25,2019,16.17,1996
COWRA AIRPORT AWS, AS,148.6497,-33.8449,17.45,2019,15.22,2012
SYDNEY AIRPORT AMO, AS,151.1731,-33.9465,19.73,2016,16.56,1943
TERREY HILLS AWS, AS,151.2253,-33.6908,18.08,2019,16.78,2008
SYDNEY OBSERVATORY HILL, AS,151.205,-33.8607,19.65,2016,16.55,1860
LUCAS HEIGHTS ANSTO, AS,150.98,-34.0517,17.63,1980,16.39,1966
PARRAMATTA NORTH MASONS DRIVE, AS,151.0181,-33.7917,18.77,2016,16.95,1992
RIVERVIEW OBSERVATORY, AS,151.1556,-33.8258,18.33,2005,17.01,1966
GRANVILLE SHELL REFINERY, AS,151.034,-33.8322,17.44,1966,17.44,1966
BANKSTOWN AIRPORT AWS, AS,150.9864,-33.9181,18.9,2019,16.78,1970
HOLDSWORTHY AIR CAVALRY, AS,150.95,-33.95,17.68,1973,16.48,1971
MACQUARIE PARK WILLANDRA VILL, AS,151.1121,-33.7791,17.56,1980,16.49,1972
CENTENNIAL PARK, AS,151.2341,-33.8959,17.37,1969,17.37,1969
CANTERBURY RACECOURSE AWS, AS,151.1134,-33.9057,18.34,2017,17.05,2008
SYDNEY OLYMPIC PARK SYDNEY OL, AS,151.0646,-33.8521,19.25,2009,18.22,2008
SYDNEY HARBOUR WEDDING CAKE W, AS,151.2633,-33.8414,19.0,2016,17.89,2012
GLENFIELD MACQUARIE, AS,150.9,-33.9667,16.95,1974,16.49,1966
GLENORIE OLD NORTHERN RD, AS,151.0094,-33.5908,16.99,1965,16.44,1966
PROSPECT RESERVOIR, AS,150.9127,-33.8193,18.75,2017,16.84,1967
LIVERPOOL MICHAEL WENDEN CENT, AS,150.8861,-33.9214,18.08,2009,17.11,2008
RICHMOND UWS HAWKESBURY, AS,150.7477,-33.6165,17.54,1968,16.62,1974
SEVEN HILLS COLLINS ST, AS,150.9318,-33.7704,17.91,1975,16.86,1966
RICHMOND RAAF, AS,150.7794,-33.6022,18.39,1980,16.63,1971
LIVERPOOL WHITLAM CENTRE, AS,150.9128,-33.9272,18.54,1998,16.63,1966
BADGERYS CREEK MCMASTERS F.STN, AS,150.7278,-33.8683,18.15,1980,16.46,1970
ORCHARD HILLS TREATMENT WORKS, AS,150.7069,-33.802,17.96,1981,16.56,1972
RICHMOND RAAF, AS,150.7761,-33.6004,18.66,2019,16.53,2008
BADGERYS CREEK AWS, AS,150.7281,-33.8969,18.22,2017,16.59,2008
PENRITH LAKES AWS, AS,150.6783,-33.7195,19.28,2016,17.74,2008
HOLSWORTHY CONTROL RANGE, AS,150.9254,-33.9795,17.85,2009,16.8,2012
HORSLEY PARK EQUESTRIAN CENTRE, AS,150.8567,-33.8511,18.69,2019,17.28,2012
JERVIS BAY POINT PERPENDICULA, AS,150.8048,-35.0936,17.65,1988,16.34,1970
KIAMA BOWLING CLUB, AS,150.8519,-34.675,17.41,1983,16.91,1984
MOSS VALE HOSKINS STREET, AS,150.3768,-34.5444,13.83,1973,12.44,1970
PICTON COUNCIL DEPOT, AS,150.6145,-34.1685,16.52,1973,15.25,1970
PORT KEMBLA SIGNAL STATION, AS,150.9131,-34.4772,18.35,1973,17.32,1966
NOWRA RAN AIR STATION AWS, AS,150.5353,-34.9469,17.81,2019,16.3,2012
NOWRA RAN AIR STATION, AS,150.545,-34.9449,17.06,1980,15.75,1966
CAMPBELLTOWN SWIMMING CENTRE, AS,150.8167,-34.0833,17.51,1973,16.15,1962
BOWRAL PARRY DRIVE, AS,150.4019,-34.4869,14.38,2009,12.04,1966
JERVIS BAY POINT PERPENDICULA, AS,150.8049,-35.0936,18.06,2016,16.89,2012
WOLLONGONG UNIVERSITY, AS,150.8795,-34.403,18.1,1998,17.03,1992
CAMDEN AIRPORT AWS, AS,150.689,-34.0391,18.09,2019,16.21,1986
MINTO ALDERNEY STREET, AS,150.8458,-34.0411,18.07,1988,17.22,1985
BELLAMBI AWS, AS,150.9291,-34.3691,18.69,2016,17.45,2008
MOSS VALE AWS, AS,150.4217,-34.5253,14.58,2019,12.87,2008
ALBION PARK WOLLONGONG AIRPOR, AS,150.79,-34.5638,17.88,2016,16.5,2008
KIAMA BOMBO HEADLAND, AS,150.8609,-34.6533,18.57,2016,17.95,2015
CAMPBELLTOWN MOUNT ANNAN, AS,150.7735,-34.0615,18.16,2019,17.21,2015
BEGA NEWTOWN ROAD, AS,149.838,-36.6884,16.08,1988,13.83,1970
BRAIDWOOD WALLACE STREET, AS,149.799,-35.4489,13.11,1969,13.11,1969
MONTAGUE ISLAND LIGHTHOUSE, AS,150.2275,-36.2519,17.83,2016,15.85,1984
MORUYA HEADS PILOT STATION, AS,150.1532,-35.9093,17.08,2016,14.87,1966
NALBAUGH STATE FOREST, AS,149.35,-37.0667,11.95,1973,10.89,1974
NAROOMA RVCP, AS,150.1358,-36.2144,16.89,2016,15.15,1996
ULLADULLA, AS,150.4833,-35.3667,16.7,1969,16.7,1969
NERRIGA COMPOSITE, AS,150.0847,-35.1165,13.49,2009,11.97,1984
GREEN CAPE LIGHTHOUSE, AS,150.0497,-37.2614,16.04,1988,14.73,1970
MERIMBULA AIRPORT COMPARISON, AS,149.9017,-36.9106,16.0,1988,14.34,1970
WOODBURN STATE FOREST, AS,150.4333,-35.4,16.16,1969,16.16,1969
BRAIDWOOD RACECOURSE AWS, AS,149.7835,-35.4253,13.82,2019,11.88,2012
BATEMANS BAY CATALINA COUNTRY, AS,150.1872,-35.7234,16.35,2009,15.25,2004
GREEN CAPE AWS, AS,150.0504,-37.2622,16.94,2016,16.51,2010
ULLADULLA AWS, AS,150.4827,-35.3635,17.38,2014,15.84,1995
BEGA AWS, AS,149.8191,-36.6722,16.04,2014,15.15,2012
MERIMBULA AIRPORT AWS, AS,149.8989,-36.9077,16.06,2016,14.9,2003
MORUYA AIRPORT AWS, AS,150.1437,-35.9004,16.59,2016,15.14,2012
BOMBALA THERRY STREET, AS,149.2379,-36.9113,12.94,2019,10.59,1974
CANBERRA AIRPORT COMPARISON, AS,149.2014,-35.3049,14.78,2007,11.84,1956
CANBERRA FORESTRY, AS,149.1,-35.3,14.28,1979,12.76,1966
FROGMORE, AS,148.84,-34.2739,15.45,1982,13.61,1970
GOULBURN, AS,149.8667,-34.75,13.88,1965,12.75,1966
NIMMITABEL WASTEWATER TREATMEN, AS,149.2794,-36.5112,10.01,1969,9.01,1971
TARALGA POST OFFICE, AS,149.8197,-34.4048,13.53,2019,11.31,1960
YASS LINTON HOSTEL, AS,148.9113,-34.8313,15.24,2007,12.65,1966
GUDGENBY, AS,148.9833,-35.75,10.8,1981,9.38,1971
ORRORAL VALLEY STADAN, AS,148.95,-35.6333,11.4,1980,9.97,1984
GOULBURN AERO CLUB, AS,149.7333,-34.8167,12.3,1969,12.3,1969
COOMA AIRPORT AWS, AS,148.9725,-36.2939,12.04,2019,9.71,1992
HONEYSUCKLE CREEK, AS,148.9833,-35.5833,10.96,1980,9.45,1970
COOMA NORTH GERINGA AVENUE, AS,149.1333,-36.2167,11.66,1968,10.56,1966
GOULBURN TAFE, AS,149.7034,-34.7495,14.78,2019,12.69,1992
COOMA VISITORS CENTRE, AS,149.1243,-36.2318,12.59,1988,11.2,2012
CANBERRA CITY, AS,149.1167,-35.2667,14.28,1980,12.7,1984
TIDBINBILLA NATURE RESERVE, AS,148.9422,-35.4408,13.72,2006,11.32,1992
NAMADGI NATIONAL PARK GLENDAL, AS,149.0052,-35.692,10.16,1984,10.16,1984
TARAGO WOODLAWN MINES, AS,149.5833,-35.0667,11.94,1984,11.94,1984
BOMBALA AWS, AS,149.2336,-37.0016,12.19,2019,10.2,1992
GOULBURN AIRPORT AWS, AS,149.7312,-34.8085,14.03,2019,12.23,2012
CANBERRA AERO COMPARISON, AS,149.1936,-35.3083,13.9,1997,12.79,1996
TUGGERANONG ISABELLA PLAINS, AS,149.0937,-35.4184,14.75,2019,12.99,2012
MOUNT GININI AWS, AS,148.7721,-35.5293,8.38,2019,6.87,2008
CHARLOTTE PASS KOSCIUSKO CHAL, AS,148.3327,-36.4335,5.01,1997,5.01,1997
KIANDRA CHALET, AS,148.5,-35.8833,7.52,1959,6.06,1964
SPENCERS CREEK, AS,148.35,-36.4333,5.34,1965,4.32,1964
ISLAND BEND, AS,148.4833,-36.3333,8.34,1965,7.78,1966
THREDBO AWS, AS,148.2859,-36.4917,5.44,2014,3.83,1976
THREDBO VILLAGE, AS,148.304,-36.5031,8.75,2014,6.72,1971
PERISHER VALLEY SKI CENTRE, AS,148.4104,-36.4033,5.95,1980,5.7,1979
ADELONG POST OFFICE, AS,148.0646,-35.3077,15.13,1988,13.01,1971
BROOKFIELD FOREST STATION, AS,147.9333,-35.8,11.97,1965,11.34,1966
CARABOST FOREST HEADQUARTERS, AS,147.8022,-35.65,13.33,1967,12.37,1966
CARABOST STATE FOREST 2, AS,147.7167,-35.65,13.82,1965,13.05,1966
HUME RESERVOIR, AS,147.0329,-36.1039,17.45,2007,14.66,1966
MURRAGULDRIE STATE FOREST 1, AS,147.6167,-35.5,14.13,1965,13.42,1966
TUMBARUMBA POST OFFICE, AS,148.0141,-35.778,13.86,2007,11.37,1966
TUMUT PLAINS HOMESDALE, AS,148.2667,-35.3333,14.65,1975,13.25,1970
RED HILL STATE FOREST, AS,148.3667,-35.1667,13.18,1965,12.26,1966
ALBURY GRAMMAR SCHOOL, AS,146.9333,-36.0667,15.43,1963,14.08,1966
KHANCOBAN SMHEA, AS,148.1431,-36.2254,14.76,1988,12.73,1966
LAUREL HILL PRISON CAMP, AS,148.0667,-35.65,11.14,1974,11.14,1974
CABRAMURRA SMHEA, AS,148.3842,-35.9383,8.6,1997,6.9,1964
ALBURY PUMPING STATION, AS,146.955,-36.0817,15.63,1981,14.22,1984
ALBURY AIRPORT, AS,146.9534,-36.0692,16.25,2006,14.35,1984
WAGGA WAGGA AMO, AS,147.4573,-35.1583,17.17,2009,14.13,1956
WAGGA WAGGA KOORINGAL, AS,147.3667,-35.1333,17.97,1914,14.86,1918
ALBURY AIRPORT AWS, AS,146.9509,-36.069,16.77,2007,14.61,1996
CABRAMURRA SMHEA AWS, AS,148.3779,-35.9371,9.66,2006,8.17,2012
KHANCOBAN AWS, AS,148.1405,-36.2304,14.98,2007,13.52,2012
BURRINJUCK DAM, AS,148.5984,-34.9997,16.84,2007,13.75,1966
COOTAMUNDRA POST OFFICE, AS,148.0236,-34.6411,16.45,1988,14.51,1964
GRENFELL QUONDONG RD, AS,148.1718,-33.9029,17.48,2007,14.94,2012
HARDEN EAST ST, AS,148.3653,-34.5607,14.97,1968,14.52,1969
QUANDIALLA POST OFFICE, AS,147.7937,-34.0112,18.22,2009,15.56,1970
TEMORA RESEARCH STATION, AS,147.5248,-34.4061,16.38,1982,14.8,1992
WYALONG POST OFFICE, AS,147.2418,-33.9262,18.52,2009,15.65,1976
YOUNG POST OFFICE, AS,148.2967,-34.3167,15.48,1973,14.14,1971
GUNDAGAI SHIRE OFFICE, AS,148.1,-35.0667,14.41,1970,14.41,1970
GUNDAGAI OTWAY ST, AS,148.1,-35.0667,15.68,1975,15.43,1972
WAGGA WAGGA AGRICULTURAL INSTI, AS,147.3493,-35.0517,16.48,1967,13.73,1920
GUNDAGAI RIDGE STREET, AS,148.1039,-35.0778,16.24,1982,14.47,1992
YOUNG AIRPORT, AS,148.2475,-34.2493,15.6,2007,13.64,1996
GUNDAGAI WILLIAM ST, AS,148.1075,-35.0479,17.0,2019,14.29,1996
COOTAMUNDRA AIRPORT, AS,148.0364,-34.6299,16.0,2009,13.79,1996
TEMORA AIRPORT, AS,147.5111,-34.4292,17.07,2009,15.64,2011
BERRIGAN POST OFFICE, AS,145.8126,-35.6577,16.47,1972,15.66,1970
FINLEY AIRPORT AWS, AS,145.561,-35.6613,16.38,2002,16.38,2002
COROWA AIRPORT, AS,146.3574,-35.9887,17.11,2007,14.84,1996
YANCO AGRICULTURAL INSTITUTE, AS,146.4328,-34.6223,18.57,2009,17.19,2012
DENILIQUIN FALKINER MEMORIAL, AS,145.05,-35.3667,16.81,1961,15.3,1964
LEETON CARAVAN PARK, AS,146.4114,-34.567,17.45,1961,16.21,1964
MATHOURA STATE FOREST, AS,144.901,-35.8119,16.57,1961,15.2,1960
NARRANDERA POST OFFICE, AS,146.55,-34.75,17.57,1963,17.05,1962
FINLEY STRATHDRUMMOND, AS,145.5333,-35.5667,15.85,1967,15.58,1965
TOCUMWAL AIRPORT, AS,145.6004,-35.817,17.32,2007,15.12,1996
URANA POST OFFICE, AS,146.2652,-35.3305,16.72,1972,15.99,1974
WAGGA WAGGA RESEARCH CENTRE, AS,147.3091,-35.1311,16.57,1982,14.55,1956
DENILIQUIN WILKINSON ST, AS,144.952,-35.5269,18.02,1914,14.64,1859
NARRANDERA AIRPORT, AS,146.5126,-34.7071,18.03,2018,16.26,1978
DENILIQUIN AERO, AS,144.9667,-35.5333,16.01,1944,15.91,1943
NARRANDERA GOLF CLUB, AS,146.5592,-34.7325,17.82,2009,15.56,1992
DENILIQUIN AIRPORT AWS, AS,144.9458,-35.5575,17.38,2007,16.03,1998
GRIFFITH CSIRO, AS,146.0667,-34.3183,17.17,1988,15.5,1964
HAY MILLER STREET, AS,144.8545,-34.5194,18.67,2014,16.58,1992
HILLSTON AIRPORT, AS,145.5249,-33.4915,19.04,2009,16.75,1984
LAKE CARGELLIGO AIRPORT, AS,146.3707,-33.2833,19.64,2019,17.07,1992
GRIFFITH AIRPORT AWS, AS,146.0695,-34.2487,18.48,2009,16.59,2012
MOULAMEIN POST OFFICE, AS,144.0349,-35.0885,17.04,1972,16.67,1971
NARADHAN URALBA, AS,146.3161,-33.6104,17.76,1980,16.34,1976
YENDA HENRY STREET, AS,146.1897,-34.2502,17.7,1979,16.59,1976
GRIFFITH CSIRO, AS,146.0684,-34.3229,16.73,2002,16.73,2002
HAY CSIRO AWS, AS,144.867,-34.5471,17.38,2002,16.98,2003
MERBEIN CSIRO RESEARCH STATION, AS,142.04,-34.2133,17.2,1973,16.36,1966
MILDURA AIRPORT, AS,142.0867,-34.2358,18.44,2018,15.97,1949
OUYEN POST OFFICE, AS,142.3158,-35.0694,18.03,2018,15.92,1964
WALPEUP RESEARCH, AS,142.004,-35.1201,17.87,2014,15.73,1986
MILDURA POST OFFICE, AS,142.2,-34.1833,19.0,1902,16.01,1904
ROBINVALE CONSOLIDATED SCHOOL, AS,142.7833,-34.6,16.95,1975,16.12,1976
BEULAH, AS,142.4202,-35.9384,16.53,1961,14.82,1964
HOPETOUN AIRPORT, AS,142.3569,-35.7151,16.86,2014,15.84,2008
SWAN HILL POST OFFICE, AS,143.5533,-35.3406,17.26,1981,15.59,1964
SWAN HILL AERODROME, AS,143.5416,-35.3766,17.38,2014,15.89,1998
NHILL AERODROME, AS,141.6486,-36.3092,16.22,2007,15.27,2008
NHILL, AS,141.6367,-36.3347,15.88,1921,13.96,1964
SERVICETON, AS,140.9833,-36.3667,14.98,1961,13.16,1970
DONALD, AS,142.9709,-36.3697,15.7,1990,14.34,1996
WARRACKNABEAL MUSEUM, AS,142.405,-36.2614,16.54,2007,14.62,1970
JEPARIT, AS,141.9878,-36.14,15.84,1973,15.6,1974
HORSHAM POLKEMMET RD, AS,142.0687,-36.6613,16.04,1961,13.7,1996
LONGERENONG, AS,142.2991,-36.6722,15.67,2014,14.14,1996
ST ARNAUD, AS,143.2631,-36.6189,15.08,1981,14.3,1978
STAWELL, AS,142.8,-37.1,15.12,1967,14.36,1966
STAWELL, AS,142.7908,-37.0717,14.95,1988,13.4,1996
KANAGULK, AS,141.8031,-37.1169,15.09,2007,14.15,2008
EDENHOPE AIRPORT, AS,141.2657,-37.0222,15.36,2014,14.5,2008
HORSHAM AERODROME, AS,142.1731,-36.6697,15.3,2007,13.92,1998
GRAMPIANS MOUNT WILLIAM, AS,142.6039,-37.295,9.73,2014,8.41,2010
STAWELL AERODROME, AS,142.7412,-37.068,15.19,2009,13.94,1998
BOORT, AS,143.7229,-36.116,16.19,1980,15.32,1970
CHARLTON POST OFFICE, AS,143.4,-36.3,15.68,1967,14.74,1970
ECHUCA AERODROME, AS,144.7642,-36.1647,16.87,2014,14.48,1986
KERANG, AS,143.9197,-35.7236,17.46,2014,15.4,1964
NUMURKAH POST OFFICE, AS,145.45,-36.1,16.26,1967,15.51,1966
ROCHESTER, AS,144.7108,-36.3613,15.9,1972,14.92,1970
KYABRAM DPI, AS,145.0638,-36.335,16.6,2014,14.01,1966
CHARLTON, AS,143.3341,-36.2847,16.8,2014,15.61,2008
BENDIGO PRISON, AS,144.2825,-36.7533,15.49,1988,13.74,1964
DOOKIE AGRICULTURAL COLLEGE, AS,145.7048,-36.3717,15.7,1972,14.47,1966
TATURA INST SUSTAINABLE AG, AS,145.2672,-36.4378,15.97,2014,13.96,1966
YARRAWONGA POST OFFICE, AS,146.0044,-36.0281,16.46,1972,15.82,1969
LEMNOS CAMPBELLS SOUP, AS,145.4594,-36.3608,15.98,1981,14.07,1966
WANALTA DAEN STATION, AS,144.8726,-36.6284,15.56,1982,14.73,1976
BENDIGO AIRPORT, AS,144.3266,-36.7395,15.74,2014,13.26,1996
YARRAWONGA, AS,146.0306,-36.0294,16.96,2007,14.7,1996
SHEPPARTON AIRPORT, AS,145.3947,-36.4289,16.41,2019,15.02,1998
BEECHWORTH COMPOSITE, AS,146.7132,-36.3702,13.78,1961,11.89,1964
BENALLA SHADFORTH STREET, AS,145.9703,-36.5483,15.81,1999,14.27,1964
CORRYONG PARISH LANE, AS,147.8956,-36.2003,14.97,1988,13.21,1984
EUROA, AS,145.5727,-36.7545,15.12,1972,14.38,1970
RUTHERGLEN RESEARCH, AS,146.5094,-36.1047,15.78,2007,13.45,1984
STRATHBOGIE, AS,145.7308,-36.8472,13.37,2007,11.42,1996
WANGARATTA, AS,146.3,-36.3667,16.35,1959,14.43,1966
WODONGA EXPRESS, AS,146.9,-36.1167,16.41,1959,14.67,1964
DARTMOUTH RESERVOIR, AS,147.4984,-36.5353,14.95,2014,13.07,1996
BONEGILLA, AS,147.0,-36.1333,15.92,1981,14.54,1970
WANGARATTA AERO, AS,146.3056,-36.4206,15.72,2007,13.58,1996
HUNTERS HILL, AS,147.5394,-36.2136,13.15,2007,10.75,1996
CORRYONG AIRPORT, AS,147.8938,-36.1828,15.02,2007,13.42,2012
BENALLA AIRPORT, AS,145.9977,-36.5523,15.87,2014,15.26,2017
BOGONG, AS,147.2239,-36.8056,12.12,1969,11.09,1964
MOUNT BEAUTY, AS,147.1633,-36.745,14.85,1988,13.1,1966
MOUNT BULLER, AS,146.4394,-37.145,7.08,2014,5.41,1987
OMEO COMPARISON, AS,147.598,-37.1011,12.02,1988,10.45,1984
WOODS POINT, AS,146.2541,-37.5696,11.42,1961,9.68,1964
FALLS CREEK SEC, AS,147.2794,-36.8633,6.95,1987,6.79,1989
DINNER PLAIN MOUNT HOTHAM AIR, AS,147.3347,-37.0491,9.33,2007,8.33,2012
BRIGHT, AS,146.9614,-36.7313,14.06,1988,12.41,1984
MOUNT BUFFALO CHALET, AS,146.8189,-36.722,9.3,1979,8.55,1974
MOUNT HOTHAM, AS,147.1478,-36.9833,6.82,1982,5.26,1985
EDI UPPER, AS,146.4671,-36.7396,13.91,1987,13.91,1987
FALLS CREEK, AS,147.2755,-36.8708,6.96,2014,5.66,1991
MOUNT HOTHAM, AS,147.1342,-36.9767,5.8,2014,3.92,1996
OMEO, AS,147.6008,-37.1017,12.7,2007,11.45,2012
GABO ISLAND LIGHTHOUSE, AS,149.9158,-37.5679,16.14,2014,14.47,1957
ORBOST COMPARISON, AS,148.4589,-37.6917,15.6,1980,13.86,1995
POINT HICKS LIGHTHOUSE, AS,149.2747,-37.8017,16.32,2013,14.74,1971
BAIRNSDALE POST OFFICE, AS,147.6167,-37.8167,14.64,1959,14.03,1958
LAKES ENTRANCE, AS,147.9961,-37.8692,15.53,2005,13.84,1966
MALLACOOTA, AS,149.7289,-37.5976,16.0,2014,14.84,2004
TABBERABBERA THE PINES, AS,147.3667,-37.5833,13.99,1975,13.99,1975
BAIRNSDALE, AS,147.65,-37.8333,14.89,1973,14.33,1971
GELANTIPY, AS,148.2625,-37.22,12.41,2014,11.36,2012
COMBIENBAR AWS, AS,149.0228,-37.3417,14.37,2018,12.32,1995
MOUNT NOWA NOWA, AS,148.0908,-37.6924,15.21,2018,13.12,1996
ORBOST, AS,148.4667,-37.6922,15.67,2014,14.77,2004
LAKES ENTRANCE EASTERN BEACH, AS,148.006,-37.8717,15.48,2014,15.08,2017
ERICA, AS,146.3735,-37.9743,13.19,1973,12.52,1969
MAFFRA FORESTRY OFFICE, AS,146.9831,-37.9664,14.37,1972,13.62,1970
EAST SALE AIRPORT, AS,147.1322,-38.1156,14.95,2019,13.0,1949
TANJIL BREN, AS,146.2,-37.8,11.02,1968,10.37,1966
WARRAGUL, AS,145.9487,-38.1731,14.43,1974,13.43,1964
WILSONS PROMONTORY LIGHTHOUSE, AS,146.4244,-39.1297,15.04,2005,12.78,1958
POUND CREEK, AS,145.8108,-38.6297,14.81,2014,14.23,2015
YALLOURN SEC, AS,146.3317,-38.1858,14.37,1961,13.06,1957
OLSENS BRIDGE MORWELL RIVER P, AS,146.3233,-38.4861,12.79,1990,11.39,1964
HAZELWOOD SEC, AS,146.3883,-38.2933,13.97,1966,13.51,1965
WON WRON PRISON, AS,146.6717,-38.4856,14.61,1968,14.59,1974
NOOJEE, AS,146.0,-37.9,13.34,1973,12.26,1966
MOONDARRA RESERVOIR, AS,146.3792,-38.0992,13.37,1983,12.83,1984
EAST TARWIN MIRBOO PASTORAL C, AS,146.2041,-38.5215,13.45,1981,12.78,1978
ELLINBANK DAIRY RESEARCH INST, AS,145.9347,-38.2456,14.36,1988,12.82,1996
NOOJEE PEARCE, AS,146.0167,-37.8833,12.93,1980,12.75,1979
NOOJEE SLIVAR, AS,145.9719,-37.9039,13.65,2007,11.87,1986
BAIRNSDALE AIRPORT, AS,147.5669,-37.8817,15.0,2014,13.38,1996
MORWELL LATROBE VALLEY AIRPOR, AS,146.4747,-38.2094,14.96,2007,13.34,1986
WILLOW GROVE BLUE ROCK RESERV, AS,146.2139,-38.0808,14.54,1988,13.39,1992
MOUNT BAW BAW, AS,146.2747,-37.8383,7.12,2014,5.33,2012
MOUNT MOORNAPA, AS,147.1428,-37.7481,14.84,2018,12.47,1996
EAST SALE COMPARISON, AS,147.1317,-38.1072,14.63,2001,14.25,1998
CAPE SCHANCK LIGHTHOUSE, AS,144.8858,-38.4931,14.53,1974,13.31,1964
BRIGHTON DENDY PARK BOWLING C, AS,145.0254,-37.9252,14.6,1966,14.6,1966
ESSENDON AIRPORT, AS,144.9066,-37.7276,16.05,2007,13.26,1949
HEALESVILLE BADGER CRK SANCTU, AS,145.5333,-37.6833,14.28,1975,14.04,1974
KEW, AS,145.0333,-37.8167,14.56,1967,14.56,1967
VIEWBANK ARPANSA, AS,145.0972,-37.7408,16.14,2007,14.78,2004
MELBOURNE REGIONAL OFFICE, AS,144.97,-37.8075,17.13,2007,13.87,1949
MOORABBIN AIRPORT, AS,145.0964,-37.98,16.04,2007,14.13,1998
MORNINGTON, AS,145.0667,-38.2358,15.14,1968,14.2,1964
MOUNT ELIZA, AS,145.1,-38.2,14.93,1968,14.93,1968
POWELLTOWN DNRE, AS,145.7428,-37.8631,13.45,1974,12.88,1970
PORTSEA QUARANTINE STATION, AS,144.6667,-38.3167,14.41,1975,13.77,1970
SCORESBY RESEARCH INSTITUTE, AS,145.2561,-37.871,15.62,2019,13.75,1966
TOORADIN, AS,145.4,-38.1667,14.47,1961,13.23,1964
WATSONIA LOYOLA, AS,145.0833,-37.7,14.59,1968,13.95,1966
WONTHAGGI, AS,145.5965,-38.6078,15.23,2007,13.38,1986
TOOLANGI MOUNT ST LEONARD DPI, AS,145.5014,-37.572,12.39,1988,10.77,1986
ASPENDALE CSIRO, AS,145.1,-38.0333,15.31,1981,14.09,1965
DANDENONG, AS,145.2235,-37.9785,14.73,1968,14.15,1970
FRENCH ISLAND MCLEOD PRISON, AS,145.3,-38.4,14.42,1974,13.89,1970
MOUNT DANDENONG GTV9, AS,145.35,-37.8306,11.9,1972,11.07,1970
MELBOURNE AIRPORT, AS,144.8321,-37.6655,15.83,2007,13.79,1986
STONY POINT, AS,145.2167,-38.3833,15.23,1981,14.49,1978
BUNDOORA LATROBE UNIVERSITY, AS,145.0453,-37.7163,16.02,2014,13.78,1996
PHILLIP ISLAND PENGUIN RESERVE, AS,145.1503,-38.5058,14.74,1982,14.74,1982
CERBERUS, AS,145.1785,-38.3646,15.22,2007,13.56,1995
TARRAWARRA MONASTERY, AS,145.4457,-37.6594,15.32,1988,13.95,1992
FRANKSTON AWS, AS,145.1156,-38.1481,15.86,2007,14.2,1996
FERNY CREEK DUNNS HILL, AS,145.3364,-37.8775,12.98,2007,10.91,1996
RHYLL, AS,145.3101,-38.4612,16.06,2007,14.2,1996
CRANBOURNE BOTANIC GARDENS, AS,145.2637,-38.1348,15.35,2007,14.21,1994
COLDSTREAM, AS,145.4094,-37.7239,14.69,2007,13.37,2003
MELBOURNE AIRPORT COMPARISON, AS,144.8419,-37.675,14.99,2000,14.99,2000
BALLAN FISKVILLE, AS,144.2,-37.6,12.97,1961,11.77,1965
DURDIDWARRAH, AS,144.2078,-37.8233,13.54,1988,11.95,1996
GEELONG SEC, AS,144.3667,-38.1167,14.86,1968,13.92,1964
LAVERTON RAAF, AS,144.7566,-37.8565,15.89,2007,13.16,1949
MACEDON FORESTRY, AS,144.5569,-37.4155,12.29,1985,11.21,1970
QUEENSCLIFF, AS,144.6621,-38.2714,14.34,1960,13.45,1957
WERRIBEE RESEARCH FARM, AS,144.6833,-37.9,14.72,1979,13.84,1966
POINT LONSDALE LIGHTHOUSE, AS,144.6142,-38.2939,15.01,1981,14.15,1963
AVALON AIRPORT, AS,144.4783,-38.0287,15.65,2007,14.24,2004
GEELONG NORLANE, AS,144.3356,-38.085,15.11,1990,14.09,1984
BLACKWOOD ARMSTRONG, AS,144.3167,-37.4667,11.71,1981,10.73,1976
GROVEDALE GEELONG AIRPORT, AS,144.3345,-38.2241,15.1,2007,13.39,1995
POINT WILSON, AS,144.5361,-38.0958,17.24,1997,14.38,2004
SHEOAKS, AS,144.1303,-37.9075,14.56,2007,12.32,1995
CRESWICK, AS,143.8789,-37.4172,12.68,1967,12.04,1966
LAKE EILDON, AS,145.9124,-37.2313,15.42,2007,13.17,1984
HEATHCOTE, AS,144.6935,-36.9579,14.42,1974,13.79,1970
KYNETON POST OFFICE, AS,144.45,-37.25,11.86,1958,11.5,1957
MARYBOROUGH, AS,143.732,-37.056,15.45,2014,13.27,1996
REDESDALE, AS,144.5203,-37.0194,14.94,2014,12.91,1995
RUBICON SEC, AS,145.8547,-37.3389,12.11,1961,10.35,1964
MANGALORE AIRPORT, AS,145.1859,-36.8886,15.88,2007,13.77,1996
CASTLEMAINE PRISON, AS,144.2392,-37.0809,14.78,2014,12.68,1996
KYNETON, AS,144.4378,-37.25,12.18,1975,11.28,1970
SPRING CREEK BASIN TWO, AS,145.722,-37.0748,13.87,1981,12.99,1976
WALLAN KILMORE GAP, AS,144.9654,-37.3807,13.54,2014,11.85,2004
EILDON FIRE TOWER, AS,145.8423,-37.2091,14.08,2007,12.5,2004
ARARAT POST OFFICE, AS,142.95,-37.2833,13.83,1967,12.96,1964
BALLARAT AERODROME, AS,143.7911,-37.5127,13.5,2007,11.15,1986
LISMORE POST OFFICE, AS,143.3437,-37.9543,14.45,1980,12.76,1964
ARARAT PRISON, AS,142.9811,-37.2775,14.32,2014,11.93,1970
WARRAMBINE NUMBER 2, AS,143.9023,-37.8779,13.05,1983,13.05,1983
WARRAMBINE BASIN NUMBER 3, AS,143.8833,-37.8333,13.6,1980,12.53,1973
LOOKOUT HILL, AS,143.2469,-37.2822,9.91,1997,9.02,2004
WESTMERE, AS,142.9378,-37.7067,14.12,2007,13.2,2008
CAPE NELSON LIGHTHOUSE COMPARI, AS,141.5419,-38.4319,14.59,1988,13.2,1960
CAPE OTWAY LIGHTHOUSE, AS,143.5128,-38.8556,15.55,1898,12.65,1866
COLAC AIRPORT, AS,143.6613,-38.2798,13.81,1999,13.81,1999
COLAC MOUNT GELLIBRAND, AS,143.7925,-38.2333,14.31,2014,13.0,2004
HAMILTON, AS,142.0167,-37.7333,14.42,1961,12.95,1958
HEYWOOD FORESTRY, AS,141.6316,-38.1355,13.81,1973,13.14,1969
WARRNAMBOOL POST OFFICE, AS,142.4814,-38.3836,15.27,1981,13.28,1964
WEEAPROINAH, AS,143.5127,-38.6357,11.96,2007,10.22,1996
HAMILTON RESEARCH STATION, AS,142.0644,-37.825,13.75,1988,12.35,1995
GELLIBRAND RIVER FORESTRY, AS,143.539,-38.5304,13.09,1974,12.19,1967
CASTERTON SHOWGROUNDS, AS,141.4133,-37.5909,15.09,2007,13.43,1964
COLAC SHIRE OFFICE, AS,143.5848,-38.3427,14.41,1981,12.05,1957
LORNE PIER HEAD, AS,143.9833,-38.5333,15.63,1981,13.93,1984
PORTLAND AERO, AS,141.6333,-38.3833,14.24,1981,13.72,1976
PORTLAND CASHMORE AIRPORT, AS,141.4705,-38.3148,14.28,2013,12.69,1996
WARRNAMBOOL AIRPORT, AS,142.4353,-38.2919,13.87,1988,12.66,1996
HAMILTON AIRPORT, AS,142.0636,-37.6486,14.21,2014,12.48,1986
COLAC ELLIMINYT, AS,143.5961,-38.3933,13.59,1988,12.23,1996
PORT FAIRY AWS, AS,142.2347,-38.3906,15.0,2013,13.86,1995
MORTLAKE RACECOURSE, AS,142.7744,-38.0737,14.21,2014,12.46,1996
AIREYS INLET, AS,144.0883,-38.4583,15.24,2014,13.44,1995
CASTERTON, AS,141.3339,-37.583,14.74,2007,13.78,2006
CAPE NELSON LIGHTHOUSE, AS,141.5437,-38.4306,15.07,2013,13.69,1996
WARRNAMBOOL AIRPORT NDB, AS,142.4522,-38.2867,14.38,2013,13.15,2006
BRIDPORT POST OFFICE, AS,147.3917,-41.0067,13.55,1974,12.73,1970
BURNIE ROUND HILL, AS,145.9431,-41.0661,14.29,1988,12.6,1984
CRESSY RESEARCH STATION MAIN, AS,147.0811,-41.7219,12.54,1988,10.89,1965
ELLIOTT RESEARCH STATION, AS,145.7725,-41.0828,12.8,1988,11.18,1968
LAUNCESTON PUMPING STATION, AS,147.2,-41.5,13.74,1921,11.27,1907
LOW HEAD COMPARISON, AS,146.7883,-41.0567,14.47,1988,11.78,1909
PREOLENNA, AS,145.5517,-41.0867,12.26,1988,10.76,1986
QUOIBA, AS,146.3467,-41.2083,13.14,1981,11.26,1964
REDPA GREENES ROAD, AS,144.7489,-40.9272,12.82,1961,11.42,1957
SHEFFIELD, AS,146.3278,-41.3831,12.43,1988,10.35,1965
SMITHTON GRANT STREET, AS,145.1125,-40.8492,13.29,1971,11.77,1996
STANLEY POST OFFICE, AS,145.2944,-40.7642,13.47,1971,12.85,1966
TEWKESBURY, AS,145.7061,-41.2314,10.99,1988,9.39,1965
LAUNCESTON AIRPORT COMPARISON, AS,147.2033,-41.5397,12.78,1988,10.77,1949
WYNYARD AIRPORT, AS,145.7292,-40.9972,12.93,2016,11.06,1964
DEVONPORT, AS,146.3667,-41.1833,13.09,1974,11.81,1957
WYNYARD JACKSON STREET, AS,145.7292,-40.9942,13.19,1989,11.65,1968
SCOTTSDALE KRAFT FOODS, AS,147.5167,-41.15,12.57,1961,11.09,1964
ERRIBA CRADLE MOUNTAIN ROAD, AS,146.1089,-41.4506,10.06,1988,7.95,1964
LAUNCESTON MOUNT PLEASANT, AS,147.15,-41.4667,12.5,1985,11.72,1968
DEVONPORT AIRPORT, AS,146.4267,-41.1708,13.45,2016,11.73,1996
MOUNT BARROW, AS,147.4167,-41.4,4.68,1969,3.98,1968
FORTHSIDE RESEARCH STATION, AS,146.265,-41.2039,12.87,1988,11.19,1995
DELORAINE GODERICK, AS,146.6333,-41.5167,10.77,1969,10.39,1968
GEORGE TOWN, AS,146.8333,-41.1167,12.99,1973,12.43,1977
DELORAINE EAST, AS,146.65,-41.5333,11.4,1974,10.74,1977
LAUNCESTON ELPHIN, AS,147.1667,-41.45,12.86,1973,12.4,1975
SCOTTSDALE WEST MINSTONE ROAD, AS,147.4883,-41.1708,13.37,1988,11.36,1977
MARRAWAH, AS,144.7094,-40.9089,13.34,2007,11.95,1978
DEVONPORT EAST, AS,146.3817,-41.18,13.42,1988,11.93,1977
LAUNCESTON TI TREE BEND, AS,147.1222,-41.4194,14.01,1988,12.15,1996
GUNNS PLAINS, AS,145.9833,-41.3,12.04,1981,11.59,1982
CAPE GRIM BAPS, AS,144.69,-40.6828,13.67,2014,12.4,1986
LUNCHEON HILL FORESTRY, AS,145.1517,-41.1492,11.86,2001,10.67,2008
POWRANNA TASMANIA FEEDLOT, AS,147.2831,-41.6839,12.63,2007,10.88,1996
BRIDPORT SEA VIEW VILLAS, AS,147.3869,-41.0025,13.76,2016,12.7,2006
SHEFFIELD SCHOOL FARM, AS,146.3219,-41.3886,11.89,2007,11.02,2006
SMITHTON AERODROME, AS,145.0847,-40.8347,12.93,2007,11.83,2006
LOW HEAD, AS,146.7856,-41.0556,14.15,2016,13.01,2006
CRESSY RESEARCH STATION, AS,147.0794,-41.7256,12.56,2007,11.22,2006
LAUNCESTON AIRPORT, AS,147.2144,-41.5492,12.81,2007,11.57,2006
ROSSARDEN ABERFOYLE, AS,147.75,-41.6667,9.15,1970,9.15,1970
BICHENO COUNCIL DEPOT, AS,148.3036,-41.8739,14.46,2016,12.66,1965
FINGAL LEGGE STREET, AS,147.9664,-41.6428,12.45,1988,10.64,1996
LAKE LEAKE ELIZABETH RIVER, AS,147.7975,-42.0067,9.56,2014,8.22,1995
ORFORD AUBIN COURT, AS,147.8753,-42.5519,13.29,1988,11.95,1995
ST HELENS POST OFFICE, AS,148.2489,-41.3225,13.63,1981,12.07,1964
SWAN ISLAND LIGHTHOUSE, AS,148.1253,-40.7314,14.67,1988,13.3,1996
SWANSEA POST OFFICE, AS,148.0731,-42.1236,13.74,2007,11.67,1964
EDDYSTONE POINT, AS,148.3467,-40.9928,14.89,2007,12.82,1965
LAKE LEAKE CHALET, AS,147.7933,-42.0097,9.62,1981,8.6,1976
SCAMANDER, AS,148.2644,-41.4639,13.85,2009,12.79,1978
STORYS CREEK STORYS CREEK ROA, AS,147.7292,-41.635,8.93,1986,8.93,1986
FRIENDLY BEACHES, AS,148.2794,-41.9953,14.39,2016,13.3,2004
ST HELENS AERODROME, AS,148.2792,-41.3381,14.06,2016,12.81,2004
SWAN ISLAND, AS,148.125,-40.7292,14.85,2014,13.68,2006
MARIA ISLAND POINT LESUEUR, AS,148.0181,-42.6619,14.19,2007,13.29,2006
ROSS ELLINTHORP, AS,147.33,-42.0283,11.17,1967,10.93,1966
OATLANDS POST OFFICE, AS,147.3711,-42.3006,11.19,1961,9.53,1964
PALMERSTON, AS,146.9886,-41.79,12.63,1988,10.6,1965
CAMPBELL TOWN, AS,147.4833,-41.9333,11.59,1973,10.62,1976
ROSS THE BOULEVARDS, AS,147.4953,-42.025,12.5,2007,10.45,1996
CAMBRIDGE AERODROME, AS,147.4833,-42.8333,12.36,1951,11.88,1953
HOBART AIRPORT, AS,147.5033,-42.8339,13.83,2016,11.98,1964
CAPE BRUNY LIGHTHOUSE, AS,147.1453,-43.4892,13.1,2016,11.02,1958
DOVER, AS,147.0075,-43.3167,12.47,2016,10.89,1995
HASTINGS CHALET, AS,146.8731,-43.4144,11.86,1981,10.48,1958
HOBART ELLERSLIE ROAD, AS,147.3278,-42.8897,14.0,2016,11.86,1902
KINGSTON, AS,147.3167,-42.9667,12.29,1972,11.19,1967
MAATSUYKER ISLAND LIGHTHOUSE, AS,146.2711,-43.6578,12.14,1961,10.56,1995
RISDON, AS,147.3167,-42.8333,13.27,1961,12.07,1964
GROVE COMPARISON, AS,147.0772,-42.9831,12.29,2005,10.82,1958
TASMAN ISLAND LIGHTHOUSE, AS,148.0,-43.25,11.07,1974,10.72,1969
MOUNT WELLINGTON, AS,147.235,-42.8967,5.65,2014,3.33,1964
GEEVESTON CEMETERY ROAD, AS,146.9172,-43.1639,12.2,2005,11.21,1997
GEEVESTON FOURFOOT, AS,146.9197,-43.1589,11.5,1973,10.96,1977
TASMAN ISLAND, AS,148.0025,-43.2397,12.21,2016,11.1,2006
PORT ARTHUR PALMERS LOOKOUT, AS,147.8333,-43.1639,12.18,1999,10.91,1986
BULL BAY LAURISTON, AS,147.3611,-43.0903,13.51,1999,11.98,1992
HARTZ MOUNTAIN KEOGHS PIMPLE, AS,146.7683,-43.2006,8.47,1999,6.94,2006
TUNNACK FIRE STATION, AS,147.4614,-42.4544,10.66,2007,9.71,2004
CAPE BRUNY CAPE BRUNY, AS,147.1444,-43.4886,13.2,2016,11.96,2004
MELTON MOWBRAY NORTH STOCKMAN, AS,147.1981,-42.4928,12.29,2016,11.04,2004
CAMPANIA KINCORA, AS,147.4258,-42.6867,13.6,2016,12.26,2004
GROVE RESEARCH STATION, AS,147.0742,-42.9858,12.33,2016,11.04,2006
BOTHWELL FRANKLIN STREET, AS,147.0061,-42.3883,10.56,1973,9.76,1967
BUSHY PARK BUSHY PARK ESTATES, AS,146.8983,-42.7097,12.85,2016,10.87,1964
MAYDENA, AS,146.5972,-42.7636,10.76,1972,9.69,1968
NEW NORFOLK, AS,147.0833,-42.7833,12.35,1972,11.71,1970
TARRALEAH VILLAGE, AS,146.4486,-42.3003,9.55,1988,7.75,1996
LIAPOOTAH POWER STATION, AS,146.5083,-42.3808,10.17,1991,10.17,1991
OUSE FIRE STATION, AS,146.7106,-42.4842,12.67,2016,11.31,2006
MOOGARA UXBRIDGE BACK ROAD, AS,146.9056,-42.7889,10.0,2005,9.18,2006
MAYDENA POST OFFICE, AS,146.6239,-42.7567,11.2,2018,10.04,2006
BRONTE HEIGHTS, AS,146.4931,-42.1419,9.47,1961,7.73,1964
BUTLERS GORGE, AS,146.2808,-42.2811,8.82,2014,7.23,1964
CRADLE VALLEY WALDHEIM, AS,145.9444,-41.6383,7.24,1972,6.01,1968
LAKE ST CLAIR HEC, AS,146.2167,-42.1,9.31,1981,7.54,1957
SHANNON HEC, AS,146.75,-42.05,7.81,1961,6.41,1958
LIAWENEE, AS,146.6694,-41.8997,7.43,2014,6.23,2004
CRADLE MOUNTAIN AIRSTRIP, AS,145.9358,-41.5836,7.63,2001,7.63,2001
LIAWENEE COMPARISON, AS,146.6672,-41.8983,7.54,1999,5.99,1996
LAKE ST CLAIR NATIONAL PARK, AS,146.1772,-42.1178,8.55,2001,7.17,1996
BARREN TIER, AS,146.7533,-42.0197,6.8,1999,6.8,1999
CAPE SORELL, AS,145.17,-42.1986,13.5,2014,11.76,1958
QUEENSTOWN COPPER MINE, AS,145.5681,-42.0661,11.16,1997,11.16,1997
WARATAH MOUNT ROAD, AS,145.5258,-41.4372,9.17,1961,7.71,1964
ZEEHAN POST OFFICE, AS,145.3333,-41.8833,11.15,1962,10.33,1964
WARRA, AS,146.704,-43.0609,10.0,2007,8.9,2006
QUEENSTOWN 7XS, AS,145.5447,-42.0967,11.76,1981,10.35,1965
SAVAGE RIVER MINE, AS,145.2083,-41.4892,10.86,1974,9.93,1967
STRATHGORDON THE KNOB, AS,145.9833,-42.7333,8.89,1968,8.89,1968
STRATHGORDON VILLAGE, AS,146.0461,-42.7681,10.67,2000,9.69,1996
ZEEHAN WEST COAST PIONEERS MU, AS,145.3358,-41.8822,11.24,1972,11.24,1972
STRAHAN VIVIAN STREET, AS,145.3267,-42.1558,13.06,1988,11.55,1978
STRAHAN AERODROME, AS,145.2908,-42.155,12.96,2017,11.7,1996
ROSEBERY HEC SUBSTATION, AS,145.5381,-41.7772,12.57,1988,11.26,1991
NEWTON CREEK HEC, AS,145.5867,-41.905,10.17,1988,8.69,1986
LOW ROCKY POINT, AS,145.5022,-42.985,12.93,2016,12.13,2015
STRAHAN LODGE, AS,145.3028,-42.1514,12.41,1993,11.75,1992
SCOTTS PEAK DAM, AS,146.2722,-43.0425,11.22,2014,10.28,2008
MOUNT READ, AS,145.5419,-41.8444,6.31,2007,5.3,2008
CURRIE POST OFFICE, AS,143.8486,-39.9322,14.25,1989,12.87,1958
KING ISLAND AIRPORT, AS,143.8831,-39.88,14.14,2013,12.72,1996
DEAL ISLAND, AS,147.3153,-39.4764,14.25,1990,13.2,1996
FLINDERS ISLAND AIRPORT, AS,148.0024,-40.0911,14.75,2016,12.94,1965
LADY BARRON AERODROME, AS,148.2372,-40.2028,13.02,1994,13.02,1994
KREMSMUENSTER, AU,14.1331,48.05,10.76,1994,6.78,1879
WIEN, AU,16.35,48.2331,12.19,2000,7.5,1940
SALZBURG, AU,13.0,47.8,11.47,1994,6.68,1940
INNSBRUCK, AU,11.4,47.2667,11.48,1994,7.47,1956
SONNBLICK, AU,12.95,47.05,-4.06,2002,-7.85,1909
GRAZ, AU,15.45,47.0831,12.04,2000,7.58,1895
VIENNA, AU,16.13333,48.31667,10.03,1951,9.03,1952
BASE ESPERANZA, AY,-56.983,-63.4,-2.81,1999,-7.32,1961
BASE ORCADAS, AY,-44.733,-60.733,-1.54,1989,-5.58,1980
NEUMAYER, AY,-8.25,-70.667,-15.23,1988,-17.02,1989
BASE MARAMBIO, AY,-56.717,-64.233,-6.09,1999,-10.77,1980
MAWSON, AY,62.867,-67.6,-9.71,1991,-13.5,1982
DAVIS, AY,77.95,-68.583,-8.24,1991,-12.67,1982
CASEY, AY,110.517,-66.283,-6.56,1980,-10.38,1982
DUMONT D URVILLE, AY,140.017,-66.667,-10.6,2011,-11.3,2013
MCMURDO SOUND NAF, AY,166.7333,-77.8833,-15.34,1996,-18.99,1962
ELLSWORTH IGY, AY,-41.11667,-77.73333,-24.04,1958,-24.04,1958
EIGHTS, AY,-77.16667,-75.23333,-26.97,1964,-26.97,1964
SIPLE STATION, AY,-83.91667,-75.91667,-24.06,1980,-25.58,1982
LITTLE AMERICA, AY,-162.14388,-78.19944,-22.69,1957,-23.14,1958
BYRD STATION, AY,-119.53333,-80.01667,-26.98,1966,-29.98,1962
PLATEAU STATION, AY,40.58333,-79.46667,-55.87,1967,-56.68,1966
WILKES, AY,110.56667,-66.26667,-8.49,1961,-10.78,1963
ADARE HALLETT, AY,170.30833,-72.29444,-14.72,1963,-16.86,1962
AMUNDSEN SCOTT, AY,0.0,-90.0,-48.21,1988,-51.06,1983
GRANTLEY ADAMS, BB,-59.483,13.067,27.32,2002,26.96,1999
SHAKAWE, BC,21.85,-18.367,23.22,1983,21.39,1974
MAUN, BC,23.417,-19.983,23.24,1970,21.5,1974
TSHANE, BC,21.883,-24.017,21.51,1986,19.83,1963
TSABONG, BC,22.45,-26.05,20.88,1970,19.52,1964
TWEE RIVIEREN, BC,20.617,-26.467,21.76,2014,21.76,2014
MAHALAPYE, BC,25.43,-23.12,22.29,1983,19.36,1976
FRANCISTOWN, BC,27.5,-21.217,21.58,1982,19.59,1974
L F WADE INTERNATIONAL AIRPORT KINDLEY FIELD, BD,-64.6833,32.3667,23.7,1989,21.17,1965
BERMUDA, BD,-64.64888,32.36916,22.32,1953,21.31,1955
UCCLE, BE,4.35,50.8,11.43,1834,7.44,1879
NASSAU AIRPORT NEW, BF,-77.467,25.05,25.91,1998,23.52,1981
GOLD ROCK CREEK, BF,-78.36667,26.61667,23.03,1954,23.03,1954
BJELASNICA, BK,18.2667,44.0667,2.36,2000,-0.83,1901
SARAJEVO, BK,18.4228,43.8678,12.37,2014,8.63,1908
RIBERALTA, BL,-66.117,-11.0,27.06,2009,26.86,2012
MAGDALENA, BL,-64.117,-13.333,26.63,2012,26.63,2012
RURRENABAQUE, BL,-67.57,-14.47,25.89,2012,25.67,2010
EL ALTO INTERNATIONAL, BL,-68.192,-16.513,8.65,2010,8.65,2010
KANDI, BN,2.93,11.13,28.19,1973,26.91,1955
NATITINGOU, BN,1.48,10.32,28.18,2011,26.25,1962
TCHAOUROU, BN,2.6,8.87,26.96,1947,26.09,1961
SAVE, BN,2.43,7.98,27.9,1973,26.67,1967
COTONOU, BN,2.38,6.35,28.17,1951,26.52,1956
SAVE, BN,2.467,8.032,28.3,2011,28.3,2011
PARAKOU, BN,2.617,9.35,27.7,2013,27.7,2013
BALTIJSK, BO,19.9,54.65,10.1,2000,6.25,1987
ZHELEZNODOROZHNYJ, BO,21.3,54.38,9.08,1990,5.51,1987
MINSK, BO,27.53,53.87,8.04,2000,3.43,1940
BREST, BO,23.6831,52.1167,9.69,1989,5.93,1956
VASILEVICI, BO,29.8331,52.25,8.77,1989,4.65,1940
VIDIN, BU,22.85,43.983,13.13,2007,11.09,2005
KURDJALI, BU,25.383,41.65,13.67,2013,11.91,1978
BEAR CREEK, BC CA,-124.0,48.5,8.87,1958,6.4,1959
BECHER BAY, BC CA,-123.6333,48.3333,10.68,1958,8.96,1964
CHEMAINUS, BC CA,-123.75,48.9333,12.38,2015,10.04,2011
CORDOVA BAY, BC CA,-123.3667,48.5333,11.2,1958,9.25,1956
CORDOVA BAY SOUTH, BC CA,-123.3667,48.5167,11.24,1987,9.29,1975
COWICHAN, BC CA,-123.7,48.4167,10.54,1915,8.32,1916
COWICHAN BAY CHERRY POINT, BC CA,-123.55,48.7167,11.1,1958,7.55,1916
COWICHAN BAY SOUTHEAST, BC CA,-123.6,48.7333,10.66,1992,9.68,1993
COWICHAN LAKE FORESTRY, BC CA,-124.1333,48.8167,10.86,2004,7.17,1955
COWICHAN LAKE HATCHERY, BC CA,-124.1167,48.8333,10.13,1944,9.27,1943
LAKE COWICHAN, BC CA,-124.05,48.8333,10.87,1995,8.23,1985
DISCOVERY ISLAND, BC CA,-123.2333,48.4167,11.36,2000,9.37,2011
DUNCAN, BC CA,-123.7167,48.7833,11.69,1940,9.09,1950
DUNCAN BCHPA VIT, BC CA,-123.7167,48.8333,9.4,1974,8.68,1975
DUNCAN FORESTRY, BC CA,-123.6833,48.7667,10.61,1988,8.8,1975
DUNCAN KELVIN CREEK, BC CA,-123.7333,48.7333,10.96,2004,9.24,2008
EAST SOOKE ANDERSON COVE, BC CA,-123.6333,48.35,9.92,1979,8.92,1975
ELK LAKE, BC CA,-123.3833,48.5167,9.79,1974,9.15,1975
ESQUIMALT, BC CA,-123.4167,48.4333,10.57,1877,8.48,1893
ESQUIMALT HARBOUR, BC CA,-123.4333,48.4333,11.47,2015,8.76,2008
GANGES MANSELL RD, BC CA,-123.5,48.8667,10.33,2005,10.23,2002
JAMES ISLAND, BC CA,-123.35,48.6,11.62,1958,8.71,1955
KUPER ISLAND, BC CA,-123.6333,48.9667,10.33,1900,9.04,1896
LAKE COWICHAN, BC CA,-124.05,48.8167,10.52,1926,8.4,1933
MALAHAT, BC CA,-123.5333,48.5667,11.22,2015,8.62,2011
MAYNE ISLAND, BC CA,-123.3167,48.85,11.2,1998,8.59,1985
METCHOSIN, BC CA,-123.5667,48.3667,10.56,1926,8.02,1916
METCHOSIN PARRY BAY, BC CA,-123.5,48.3833,10.86,1992,10.33,1994
MILNES LANDING, BC CA,-123.7333,48.35,10.77,1941,8.07,1950
NORTH COWICHAN, BC CA,-123.7167,48.8167,11.5,2015,8.7,2008
NORTH PENDER ISLAND, BC CA,-123.2833,48.7667,11.53,2004,8.83,1985
PENDER ISLAND, BC CA,-123.3,48.7667,11.73,1998,10.25,1996
POINT NO POINT, BC CA,-123.9833,48.4,10.92,2004,9.71,1996
PORT RENFREW, BC CA,-124.3333,48.6,10.13,1992,7.68,1985
RACE ROCKS CS, BC CA,-123.5333,48.3,11.34,2015,10.04,2017
RACE ROCKS LIGHTSTATION, BC CA,-123.5333,48.3,10.27,1992,8.77,1985
RIVER JORDAN, BC CA,-124.05,48.4167,10.15,1958,7.77,1955
SAANICHTON CDA, BC CA,-123.4167,48.6167,11.59,2015,8.05,1955
SALTSPRING ISLAND, BC CA,-123.5,48.85,11.14,1926,7.48,1955
SALTSPRING IS CUSHEON LK, BC CA,-123.4833,48.8167,9.67,1992,7.81,1985
SALTSPRING ST MARY S L, BC CA,-123.55,48.8833,12.45,2015,8.96,1985
SAANICH DOM ASTRO OBS, BC CA,-123.4167,48.5167,12.2,1934,7.96,1955
SALTSPRING VESUVIUS, BC CA,-123.5667,48.8833,10.93,1963,8.88,1957
SATURNA CAPMON, BC CA,-123.1333,48.7833,10.78,2004,9.27,2008
SATURNA CAPMON CS, BC CA,-123.1333,48.7833,11.33,2015,9.41,2012
SATURNA ISLAND CS, BC CA,-123.05,48.7833,12.48,2005,8.93,2012
SHAWNIGAN LAKE, BC CA,-123.6333,48.65,11.43,2015,7.59,1916
SHERINGHAM POINT, BC CA,-123.9167,48.3833,11.01,2004,8.52,2011
SOOKE, BC CA,-123.7333,48.3667,10.09,1989,9.89,1990
SOOKE GLINZ LAKE, BC CA,-123.6333,48.4167,8.1,1984,8.1,1984
SOOKE OTTER POINT, BC CA,-123.8167,48.3667,8.91,1976,8.66,1975
SOUTH PENDER ISLAND 2, BC CA,-123.2167,48.75,9.87,1979,9.4,1971
VICTORIA BAY STREET, BC CA,-123.3667,48.4333,12.11,1958,10.6,1959
VICTORIA UNIVERSITY CS, BC CA,-123.3,48.45,12.14,1998,9.62,2011
VICTORIA GONZALES HTS, BC CA,-123.3167,48.4167,11.3,1998,8.6,1916
VICTORIA GONZALES CS, BC CA,-123.3333,48.0333,11.61,2015,9.56,2011
VICTORIA HIGHLAND, BC CA,-123.5167,48.5167,10.24,1992,8.7,1996
VICTORIA INTERNATIONAL A, BC CA,-123.4333,48.65,11.03,1958,8.46,1955
VICTORIA LANSDOWNE, BC CA,-123.3167,48.4333,11.35,1958,8.59,1955
VICTORIA MARINE, BC CA,-123.75,48.3667,9.79,1983,8.29,1985
VICTORIA NORTHRIDGE, BC CA,-123.4,48.4833,11.04,1995,10.63,1994
VICTORIA TILLICUM, BC CA,-123.3833,48.45,10.54,1967,9.37,1964
WILLIAM HEAD, BC CA,-123.5333,48.3333,11.61,1998,8.84,1972
VICTORIA HARTLAND CS, BC CA,-123.4667,48.5333,11.79,2003,9.19,2011
YOUBOU, BC CA,-124.2167,48.8833,10.34,1965,9.93,1962
YOUBOU SCHOOL, BC CA,-124.2167,48.8833,9.19,1972,9.19,1972
GALIANO SOUTH 2, BC CA,-123.35,48.8833,9.89,1983,8.67,1982
VICTORIA PHYLLIS STREET, BC CA,-123.2667,48.45,11.26,1998,9.74,1982
VICTORIA SHORT STREET, BC CA,-123.3667,48.45,11.04,1967,9.65,1972
ALERT BAY, BC CA,-126.9333,50.5833,9.85,1958,7.56,1955
BALLENAS ISLAND, BC CA,-124.1667,49.35,12.0,2015,10.89,2017
BLACK CREEK, BC CA,-125.1333,49.85,10.29,2004,8.01,1996
CAMPBELL RIVER, BC CA,-125.3,50.0167,9.63,1967,8.19,1964
CAMPBELL RIVER A, BC CA,-125.2667,49.95,10.12,2004,7.37,1971
CAMPBELL RIVER BCFS, BC CA,-125.3167,50.0667,9.97,1980,7.79,1972
CAMPBELL RIVER BCHPA GEN, BC CA,-125.3167,50.05,8.94,1976,8.94,1976
CAMPBELL R LAKEVIEW FC, BC CA,-125.55,50.2,7.29,1971,7.29,1971
CAMPBELL RIVER STP, BC CA,-125.2333,50.0167,10.58,1987,8.9,1985
CAPE LAZO, BC CA,-124.8667,49.7,10.56,1958,7.84,1955
CAPE MUDGE, BC CA,-125.2,50.0,11.55,2015,8.45,1996
CHATHAM POINT, BC CA,-125.45,50.3333,10.87,2015,8.12,1975
COAL HARBOUR RUPERT IN, BC CA,-127.5,50.6,9.53,1995,7.62,1975
COMOX A, BC CA,-124.9,49.7167,11.31,2015,7.98,1950
COMOX PCC, BC CA,-125.0333,49.6833,10.4,1992,9.69,1990
COOMBS, BC CA,-124.4333,49.3,10.43,2004,7.65,1985
CORTES ISLAND, BC CA,-125.0333,50.0833,11.23,1987,9.03,1964
CORTES ISLAND TIBER BAY, BC CA,-124.95,50.0667,11.05,2016,9.04,1996
COURTENAY GRANTHAM, BC CA,-125.0,49.7667,9.32,1981,8.35,1985
COURTENAY PUNTLEDGE, BC CA,-125.0333,49.6833,9.84,2013,8.93,2011
